,city,country,iso3,capital,lat,lng,admin_name,population
0,Tokyo,Japan,JPN,primary,35.6897,139.6922,Tōkyō,37732000.0
1,Jakarta,Indonesia,IDN,primary,-6.175,106.8275,Jakarta,33756000.0
2,Delhi,India,IND,admin,28.61,77.23,Delhi,32226000.0
3,Guangzhou,China,CHN,admin,23.13,113.26,Guangdong,26940000.0
4,Mumbai,India,IND,admin,19.0761,72.8775,Mahārāshtra,24973000.0
5,Manila,Philippines,PHL,primary,14.5958,120.9772,Manila,24922000.0
6,Shanghai,China,CHN,admin,31.2286,121.4747,Shanghai,24073000.0
7,São Paulo,Brazil,BRA,admin,-23.55,-46.6333,São Paulo,23086000.0
8,Seoul,"Korea, South",KOR,primary,37.56,126.99,Seoul,23016000.0
9,Mexico City,Mexico,MEX,primary,19.4333,-99.1333,Ciudad de México,21804000.0
10,Cairo,Egypt,EGY,primary,30.0444,31.2358,Al Qāhirah,20296000.0
11,New York,United States,USA,,40.6943,-73.9249,New York,18908608.0
12,Dhaka,Bangladesh,BGD,primary,23.7639,90.3889,Dhaka,18627000.0
13,Beijing,China,CHN,primary,39.9067,116.3975,Beijing,18522000.0
14,Kolkāta,India,IND,admin,22.5675,88.37,West Bengal,18502000.0
15,Bangkok,Thailand,THA,primary,13.7525,100.4942,Krung Thep Maha Nakhon,18007000.0
16,Shenzhen,China,CHN,minor,22.5415,114.0596,Guangdong,17619000.0
17,Moscow,Russia,RUS,primary,55.7558,37.6172,Moskva,17332000.0
18,Buenos Aires,Argentina,ARG,primary,-34.6033,-58.3817,"Buenos Aires, Ciudad Autónoma de",16710000.0
19,Lagos,Nigeria,NGA,minor,6.455,3.3841,Lagos,16637000.0
20,Istanbul,Turkey,TUR,admin,41.0136,28.955,İstanbul,16079000.0
21,Karachi,Pakistan,PAK,admin,24.86,67.01,Sindh,15738000.0
22,Bangalore,India,IND,admin,12.9789,77.5917,Karnātaka,15386000.0
23,Ho Chi Minh City,Vietnam,VNM,admin,10.7756,106.7019,Hồ Chí Minh,15136000.0
24,Ōsaka,Japan,JPN,admin,34.6939,135.5022,Ōsaka,15126000.0
25,Chengdu,China,CHN,admin,30.66,104.0633,Sichuan,14645000.0
26,Tehran,Iran,IRN,primary,35.6892,51.3889,Tehrān,14148000.0
27,Kinshasa,Congo (Kinshasa),COD,primary,-4.3219,15.3119,Kinshasa,12836000.0
28,Rio de Janeiro,Brazil,BRA,admin,-22.9111,-43.2056,Rio de Janeiro,12592000.0
29,Chennai,India,IND,admin,13.0825,80.275,Tamil Nādu,12395000.0
30,Xi’an,China,CHN,admin,34.2611,108.9422,Shaanxi,12328000.0
31,Lahore,Pakistan,PAK,admin,31.5497,74.3436,Punjab,12306000.0
32,Chongqing,China,CHN,admin,29.5637,106.5504,Chongqing,12135000.0
33,Los Angeles,United States,USA,,34.1141,-118.4068,California,11922389.0
34,Baoding,China,CHN,minor,38.874,115.464,Hebei,11544036.0
35,London,United Kingdom,GBR,primary,51.5072,-0.1275,"London, City of",11262000.0
36,Paris,France,FRA,primary,48.8567,2.3522,Île-de-France,11060000.0
37,Linyi,China,CHN,,35.1038,118.3564,Shandong,11018365.0
38,Dongguan,China,CHN,minor,23.021,113.752,Guangdong,10646000.0
39,Hyderābād,India,IND,admin,17.3617,78.4747,Telangāna,10494000.0
40,Tianjin,China,CHN,admin,39.1336,117.2054,Tianjin,10368000.0
41,Lima,Peru,PER,primary,-12.06,-77.0375,Lima,10320000.0
42,Wuhan,China,CHN,admin,30.5934,114.3046,Hubei,10251000.0
43,Nanyang,China,CHN,,32.9987,112.5292,Henan,9713112.0
44,Hangzhou,China,CHN,admin,30.267,120.153,Zhejiang,9523000.0
45,Foshan,China,CHN,minor,23.0214,113.1216,Guangdong,9498863.0
46,Nagoya,Japan,JPN,admin,35.1833,136.9,Aichi,9197000.0
47,Tongshan,China,CHN,minor,34.204,117.284,Jiangsu,9083790.0
48,Luanda,Angola,AGO,primary,-8.8383,13.2344,Luanda,9051000.0
49,Zhoukou,China,CHN,minor,33.625,114.6418,Henan,9026015.0
50,Ganzhou,China,CHN,minor,25.831,114.933,Jiangxi,8970014.0
51,Kuala Lumpur,Malaysia,MYS,primary,3.1478,101.6953,Kuala Lumpur,8911000.0
52,Heze,China,CHN,minor,35.2343,115.4796,Shandong,8795939.0
53,Quanzhou,China,CHN,minor,24.8744,118.6757,Fujian,8782285.0
54,Johannesburg,South Africa,ZAF,admin,-26.2044,28.0456,Gauteng,8500000.0
55,Chicago,United States,USA,,41.8375,-87.6866,Illinois,8497759.0
56,Nanjing,China,CHN,admin,32.0608,118.7789,Jiangsu,8422000.0
57,Jining,China,CHN,,35.4151,116.5871,Shandong,8357897.0
58,Hanoi,Vietnam,VNM,primary,21.0,105.85,Hà Nội,8246600.0
59,Pune,India,IND,,18.5203,73.8567,Mahārāshtra,8231000.0
60,Fuyang,China,CHN,,32.89,115.814,Anhui,8200264.0
61,Ahmedabad,India,IND,minor,23.0225,72.5714,Gujarāt,8009000.0
62,Bogotá,Colombia,COL,primary,4.7111,-74.0722,Bogotá,7968095.0
63,Shenyang,China,CHN,admin,41.8025,123.4281,Liaoning,7964000.0
64,Dar es Salaam,Tanzania,TZA,admin,-6.8161,39.2803,Dar es Salaam,7962000.0
65,Khartoum,Sudan,SDN,primary,15.6,32.5,Khartoum,7869000.0
66,Shangqiu,China,CHN,,34.415,115.656,Henan,7816831.0
67,Hong Kong,Hong Kong,HKG,primary,22.3,114.2,,7450000.0
68,Cangzhou,China,CHN,minor,38.3047,116.8387,Hebei,7300783.0
69,Riyadh,Saudi Arabia,SAU,primary,24.6333,46.7167,Ar Riyāḑ,7237000.0
70,Santiago,Chile,CHL,primary,-33.4372,-70.6506,Región Metropolitana,7171000.0
71,Xingtai,China,CHN,,37.0717,114.5048,Hebei,7111106.0
72,Zhumadian,China,CHN,,33.014,114.022,Henan,7008427.0
73,Chattogram,Bangladesh,BGD,admin,22.335,91.8325,Chattogram,7000000.0
74,Surabaya,Indonesia,IDN,admin,-7.2458,112.7378,Jawa Timur,6998000.0
75,Zhanjiang,China,CHN,minor,21.2701,110.3575,Guangdong,6981236.0
76,Bijie,China,CHN,,27.284,105.292,Guizhou,6899636.0
77,Yancheng,China,CHN,minor,33.3482,120.1626,Jiangsu,6709629.0
78,Hengyang,China,CHN,,26.894,112.572,Hunan,6645243.0
79,Zunyi,China,CHN,,27.722,107.031,Guizhou,6606675.0
80,Shaoyang,China,CHN,,27.2395,111.4679,Hunan,6563520.0
81,Sūrat,India,IND,,21.1702,72.8311,Gujarāt,6538000.0
82,Shangrao,China,CHN,minor,28.4551,117.9431,Jiangxi,6435300.0
83,Xinyang,China,CHN,,32.149,114.091,Henan,6234401.0
84,Madrid,Spain,ESP,primary,40.4169,-3.7033,Madrid,6211000.0
85,Baghdad,Iraq,IRQ,primary,33.3153,44.3661,Baghdād,6183000.0
86,Maoming,China,CHN,minor,21.6627,110.9255,Guangdong,6174050.0
87,Jieyang,China,CHN,minor,23.551,116.3727,Guangdong,6089400.0
88,Miami,United States,USA,,25.784,-80.2101,Florida,6080145.0
89,Singapore,Singapore,SGP,primary,1.3,103.8,,5983000.0
90,Houston,United States,USA,,29.786,-95.3885,Texas,5970127.0
91,Liaocheng,China,CHN,minor,36.4559,115.9852,Shandong,5952128.0
92,Huanggang,China,CHN,minor,30.4537,114.8724,Hubei,5882719.0
93,Dalian,China,CHN,,38.9,121.6,Liaoning,5871474.0
94,Dallas,United States,USA,,32.7935,-96.7667,Texas,5830932.0
95,Qingdao,China,CHN,minor,36.0669,120.3827,Shandong,5818255.0
96,Yulin,China,CHN,minor,22.654,110.181,Guangxi,5796766.0
97,Douala,Cameroon,CMR,admin,4.05,9.7,Littoral,5768400.0
98,Qujing,China,CHN,,25.491,103.796,Yunnan,5765775.0
99,Nangandao,China,CHN,minor,35.3036,113.9268,Henan,5708191.0
100,Philadelphia,United States,USA,,40.0077,-75.1339,Pennsylvania,5683533.0
101,Pudong,China,CHN,minor,31.2347,121.5064,Shanghai,5681512.0
102,Toronto,Canada,CAN,admin,43.7417,-79.3733,Ontario,5647656.0
103,Zhengzhou,China,CHN,admin,34.764,113.684,Henan,5621593.0
104,Dezhou,China,CHN,minor,37.436,116.359,Shandong,5611194.0
105,Nanchong,China,CHN,minor,30.8372,106.1106,Sichuan,5607565.0
106,Jinan,China,CHN,admin,36.6702,117.0207,Shandong,5606374.0
107,Giza,Egypt,EGY,admin,29.987,31.2118,Al Jīzah,5598402.0
108,Nairobi,Kenya,KEN,primary,-1.2864,36.8172,Nairobi City,5545000.0
109,Guadalajara,Mexico,MEX,admin,20.6767,-103.3475,Jalisco,5525000.0
110,Ankara,Turkey,TUR,primary,39.93,32.85,Ankara,5503985.0
111,Tai’an,China,CHN,,36.202,117.087,Shandong,5472217.0
112,Langfang,China,CHN,minor,39.5383,116.6835,Hebei,5464087.0
113,Dazhou,China,CHN,minor,31.2093,107.4678,Sichuan,5385422.0
114,Saint Petersburg,Russia,RUS,admin,59.9375,30.3086,Sankt-Peterburg,5384342.0
115,Monterrey,Mexico,MEX,admin,25.6667,-100.3,Nuevo León,5341171.0
116,Belo Horizonte,Brazil,BRA,admin,-19.9167,-43.9333,Minas Gerais,5328000.0
117,Suzhou,China,CHN,,33.6333,116.9683,Anhui,5324476.0
118,Yongzhou,China,CHN,,26.42,111.613,Hunan,5289824.0
119,Changde,China,CHN,minor,29.031,111.699,Hunan,5279102.0
120,Xiangyang,China,CHN,minor,32.01,112.122,Hubei,5260951.0
121,Rangoon,Burma,MMR,primary,16.795,96.16,Yangon,5209541.0
122,Atlanta,United States,USA,admin,33.7628,-84.422,Georgia,5180179.0
123,Washington,United States,USA,primary,38.9047,-77.0163,District of Columbia,5116378.0
124,Zhaotong,China,CHN,,27.338,103.717,Yunnan,5092611.0
125,Zhangzhou,China,CHN,minor,24.513,117.647,Fujian,5054328.0
126,Melbourne,Australia,AUS,admin,-37.8142,144.9631,Victoria,5031195.0
127,Yichun,China,CHN,minor,27.816,114.417,Jiangxi,5007702.0
128,Bozhou,China,CHN,,33.8626,115.7742,Anhui,4996844.0
129,Suqian,China,CHN,,33.9331,118.2831,Jiangsu,4986192.0
130,Abidjan,Côte d’Ivoire,CIV,primary,5.3167,-4.0333,Abidjan,4980000.0
131,Ji’an,China,CHN,minor,27.0912,114.9668,Jiangxi,4956600.0
132,Guilin,China,CHN,minor,25.275,110.296,Guangxi,4931137.0
133,Pingdingshan,China,CHN,,33.735,113.2999,Henan,4904701.0
134,Berlin,Germany,DEU,primary,52.52,13.405,Berlin,4890363.0
135,Alexandria,Egypt,EGY,admin,31.1975,29.8925,Al Iskandarīyah,4870000.0
136,Mianyang,China,CHN,minor,31.468,104.679,Sichuan,4868243.0
137,Sydney,Australia,AUS,admin,-33.8678,151.21,New South Wales,4840600.0
138,Huanglongsi,China,CHN,,34.795,114.345,Henan,4824016.0
139,Barcelona,Spain,ESP,admin,41.3828,2.1769,Catalonia,4800000.0
140,Yuncheng,China,CHN,,35.0267,111.007,Shanxi,4774508.0
141,Cape Town,South Africa,ZAF,primary,-33.9253,18.4239,Western Cape,4770313.0
142,Changsha,China,CHN,admin,28.228,112.939,Hunan,4766296.0
143,Jeddah,Saudi Arabia,SAU,,21.5433,39.1728,Makkah al Mukarramah,4697000.0
144,Weinan,China,CHN,minor,34.5206,109.471,Shaanxi,4688744.0
145,Chenzhou,China,CHN,minor,25.77,113.016,Hunan,4667134.0
146,Jiangmen,China,CHN,minor,22.5789,113.0815,Guangdong,4630300.0
147,Jiujiang,China,CHN,minor,29.661,115.954,Jiangxi,4600276.0
148,Xinpu,China,CHN,minor,34.5966,119.2214,Jiangsu,4599360.0
149,Yibin,China,CHN,minor,28.752,104.643,Sichuan,4588804.0
150,Huaihua,China,CHN,,27.5698,110.0016,Hunan,4587594.0
151,Yangzhou,China,CHN,,32.3912,119.4363,Jiangsu,4559797.0
152,Taizhou,China,CHN,minor,32.4567,119.9229,Jiangsu,4512762.0
153,Kunming,China,CHN,admin,25.0464,102.7094,Yunnan,4422686.0
154,Yiyang,China,CHN,,28.5549,112.356,Hunan,4413800.0
155,Changchun,China,CHN,admin,43.897,125.326,Jilin,4408154.0
156,Lu’an,China,CHN,minor,31.736,116.52,Anhui,4393699.0
157,Jiangguanchi,China,CHN,minor,34.0244,113.8201,Henan,4379998.0
158,Meizhou,China,CHN,minor,24.289,116.122,Guangdong,4378800.0
159,Ürümqi,China,CHN,admin,43.8225,87.6125,Xinjiang,4335017.0
160,Suzhou,China,CHN,minor,31.3,120.6194,Jiangsu,4330000.0
161,Boston,United States,USA,admin,42.3188,-71.0852,Massachusetts,4328315.0
162,İzmir,Turkey,TUR,admin,38.42,27.14,İzmir,4320519.0
163,Guigang,China,CHN,minor,23.112,109.599,Guangxi,4316262.0
164,Shantou,China,CHN,minor,23.354,116.682,Guangdong,4312192.0
165,Kabul,Afghanistan,AFG,primary,34.5253,69.1783,Kābul,4273156.0
166,Xiaoganzhan,China,CHN,,30.918,113.957,Hubei,4270371.0
167,Bamako,Mali,MLI,primary,12.6392,-8.0028,Bamako,4227569.0
168,Luzhou,China,CHN,minor,28.871,105.442,Sichuan,4218427.0
169,Hefei,China,CHN,admin,31.8206,117.2273,Anhui,4216940.0
170,Hengshui,China,CHN,minor,37.739,115.669,Hebei,4212933.0
171,Fortaleza,Brazil,BRA,admin,-3.7275,-38.5275,Ceará,4167996.0
172,Anqing,China,CHN,minor,30.5318,117.1153,Anhui,4165284.0
173,Liuzhou,China,CHN,minor,24.3264,109.4281,Guangxi,4157934.0
174,Zhangjiakou,China,CHN,minor,40.769,114.886,Hebei,4118908.0
175,Zhaoqing,China,CHN,minor,23.05,112.4667,Guangdong,4113594.0
176,Shijiazhuang,China,CHN,admin,38.0425,114.51,Hebei,4098243.0
177,Ningbo,China,CHN,minor,29.8603,121.6245,Zhejiang,4087523.0
178,Qiqihar,China,CHN,minor,47.3549,123.9182,Heilongjiang,4067489.0
179,Phoenix,United States,USA,admin,33.5722,-112.0892,Arizona,4064275.0
180,Fuzhou,China,CHN,,27.949,116.358,Jiangxi,4047200.0
181,Chifeng,China,CHN,minor,42.257,118.888,Inner Mongolia,4035967.0
182,Xiaoxita,China,CHN,minor,30.692,111.287,Hubei,4017607.0
183,Amman,Jordan,JOR,primary,31.9497,35.9328,Al ‘Āşimah,4007526.0
184,Chuzhou,China,CHN,,32.256,118.333,Anhui,3987054.0
185,Linfen,China,CHN,,36.088,111.519,Shanxi,3976481.0
186,Qingyuan,China,CHN,minor,23.682,113.056,Guangdong,3969473.0
187,Xianyang,China,CHN,minor,34.3299,108.7088,Shaanxi,3959842.0
188,Loudi,China,CHN,,27.6998,111.9944,Hunan,3931800.0
189,Binzhou,China,CHN,,37.383,117.971,Shandong,3928568.0
190,Zhuzhou,China,CHN,minor,27.829,113.133,Hunan,3902738.0
191,Taiyuan,China,CHN,admin,37.8704,112.5497,Shanxi,3875053.0
192,Nanning,China,CHN,admin,22.8167,108.3275,Guangxi,3837978.0
193,Harbin,China,CHN,admin,45.7576,126.6409,Heilongjiang,3830000.0
194,Abuja,Nigeria,NGA,primary,9.0667,7.4833,Federal Capital Territory,3770000.0
195,Yokohama,Japan,JPN,admin,35.4442,139.6381,Kanagawa,3757630.0
196,Suihua,China,CHN,minor,46.654,126.969,Heilongjiang,3756167.0
197,Zaozhuang,China,CHN,,34.8109,117.3238,Shandong,3729140.0
198,Detroit,United States,USA,,42.3834,-83.1024,Michigan,3725908.0
199,Xiamen,China,CHN,minor,24.4796,118.0889,Fujian,3707090.0
200,Neijiang,China,CHN,minor,29.5802,105.058,Sichuan,3702847.0
201,Montréal,Canada,CAN,,45.5089,-73.5617,Quebec,3675219.0
202,Fuzhou,China,CHN,admin,26.0743,119.2964,Fujian,3671192.0
203,Baicheng,China,CHN,minor,23.903,106.619,Guangxi,3669400.0
204,Wuhu,China,CHN,minor,31.3526,118.4331,Anhui,3644420.0
205,Yulinshi,China,CHN,,38.2858,109.7341,Shaanxi,3634750.0
206,Medan,Indonesia,IDN,admin,3.5894,98.6739,Sumatera Utara,3632000.0
207,Wenzhou,China,CHN,,27.9938,120.6993,Zhejiang,3604446.0
208,Changzhou,China,CHN,minor,31.811,119.974,Jiangsu,3601079.0
209,Puyang,China,CHN,minor,35.7627,115.0292,Henan,3598740.0
210,Jiaozuo,China,CHN,,35.2157,113.2419,Henan,3590700.0
211,Nanchang,China,CHN,admin,28.683,115.858,Jiangxi,3576547.0
212,Seattle,United States,USA,,47.6211,-122.3244,Washington,3561397.0
213,Ibadan,Nigeria,NGA,admin,7.3964,3.9167,Oyo,3552000.0
214,Casablanca,Morocco,MAR,admin,33.5333,-7.5833,Casablanca-Settat,3499000.0
215,Kumasi,Ghana,GHA,admin,6.7,-1.625,Ashanti,3490030.0
216,Deyang,China,CHN,minor,31.127,104.398,Sichuan,3456161.0
217,Busan,"Korea, South",KOR,admin,35.18,129.075,Busan,3453198.0
218,Hohhot,China,CHN,admin,40.842,111.749,Inner Mongolia,3446100.0
219,Hechi,China,CHN,minor,24.693,108.085,Guangxi,3417945.0
220,Algiers,Algeria,DZA,primary,36.7539,3.0589,Alger,3415811.0
221,Tangshan,China,CHN,,39.6294,118.1739,Hebei,3399231.0
222,Shiyan,China,CHN,minor,32.629,110.7987,Hubei,3398000.0
223,Lucknow,India,IND,admin,26.85,80.95,Uttar Pradesh,3382000.0
224,Mashhad,Iran,IRN,admin,36.3264,59.5433,Khorāsān-e Raẕavī,3372090.0
225,San Francisco,United States,USA,,37.7558,-122.4449,California,3364979.0
226,Boankra,Ghana,GHA,,6.6944,-1.4028,Ashanti,3348000.0
227,Dubai,United Arab Emirates,ARE,admin,25.2631,55.2972,Dubayy,3331420.0
228,Anshan,China,CHN,,41.108,122.994,Liaoning,3325372.0
229,Baojishi,China,CHN,,34.363,107.238,Shaanxi,3321853.0
230,Qinzhou,China,CHN,minor,21.981,108.654,Guangxi,3304400.0
231,Guiyang,China,CHN,admin,26.647,106.63,Guizhou,3299724.0
232,Bengbu,China,CHN,,32.917,117.389,Anhui,3296408.0
233,Bazhou,China,CHN,minor,31.868,106.748,Sichuan,3283148.0
234,Suining,China,CHN,minor,30.533,105.593,Sichuan,3252619.0
235,Wuxi,China,CHN,minor,31.491,120.312,Jiangsu,3245179.0
236,Kotla Qasim Khan,Pakistan,PAK,,32.5833,73.75,Punjab,3219375.0
237,Hanzhong,China,CHN,,33.0664,107.0232,Shaanxi,3211462.0
238,Putian,China,CHN,minor,25.4526,119.0078,Fujian,3210714.0
239,Zhenjiang,China,CHN,minor,32.188,119.424,Jiangsu,3210418.0
240,Guang’an,China,CHN,minor,30.4564,106.6326,Sichuan,3205476.0
241,Faisalabad,Pakistan,PAK,minor,31.4167,73.0911,Punjab,3203846.0
242,Changzhi,China,CHN,minor,36.195,113.117,Shanxi,3180884.0
243,Tongren,China,CHN,,27.7316,109.1895,Guizhou,3168800.0
244,Leshan,China,CHN,,29.552,103.766,Sichuan,3160168.0
245,Santa Cruz de la Sierra,Bolivia,BOL,,-17.7892,-63.1975,Santa Cruz,3151676.0
246,Qinhuangdao,China,CHN,,39.8882,119.5202,Hebei,3146300.0
247,Jaipur,India,IND,admin,26.9,75.8,Rājasthān,3073350.0
248,Xinzhou,China,CHN,minor,38.416,112.734,Shanxi,3067501.0
249,Lanzhou,China,CHN,admin,36.0606,103.8268,Gansu,3067141.0
250,Wuzhou,China,CHN,minor,23.4767,111.279,Guangxi,3061100.0
251,Athens,Greece,GRC,primary,37.9842,23.7281,Attikí,3059764.0
252,San Diego,United States,USA,,32.8313,-117.1222,California,3046560.0
253,Addis Ababa,Ethiopia,ETH,primary,9.03,38.74,Ādīs Ābeba,3041002.0
254,Taichung,Taiwan,TWN,admin,24.1439,120.6794,Taichung,3033885.0
255,Huainan,China,CHN,,32.6314,117.0194,Anhui,3033528.0
256,Guatemala City,Guatemala,GTM,primary,14.6133,-90.5353,Guatemala,3014000.0
257,Kuwait City,Kuwait,KWT,primary,29.3697,47.9783,Al ‘Āşimah,3000000.0
258,Budapest,Hungary,HUN,primary,47.4925,19.0514,Budapest,2997958.0
259,Qincheng,China,CHN,minor,34.5809,105.7311,Gansu,2984659.0
260,Rizhao,China,CHN,minor,35.417,119.527,Shandong,2968365.0
261,Quezon City,Philippines,PHL,admin,14.65,121.0475,Quezon,2960048.0
262,Sanaa,Yemen,YEM,primary,15.3483,44.2064,Amānat al ‘Āşimah,2957000.0
263,Tashkent,Uzbekistan,UZB,primary,41.3111,69.2797,Toshkent,2956384.0
264,Kyiv,Ukraine,UKR,primary,50.45,30.5233,"Kyiv, Misto",2952301.0
265,Meishan,China,CHN,,30.0771,103.8484,Sichuan,2950545.0
266,Incheon,"Korea, South",KOR,admin,37.4833,126.6333,Incheon,2936117.0
267,Birmingham,United Kingdom,GBR,,52.48,-1.9025,Birmingham,2919600.0
268,Ningde,China,CHN,minor,26.6662,119.5477,Fujian,2910000.0
269,Zhongshan,China,CHN,minor,22.517,113.3925,Guangdong,2909633.0
270,Weihai,China,CHN,minor,37.5133,122.1205,Shandong,2906548.0
271,Bursa,Turkey,TUR,admin,40.1833,29.05,Bursa,2901396.0
272,Minneapolis,United States,USA,,44.9635,-93.2678,Minnesota,2892569.0
273,Mbuji-Mayi,Congo (Kinshasa),COD,admin,-6.15,23.6,Kasaï Oriental,2892000.0
274,Haikou,China,CHN,admin,20.0186,110.3488,Hainan,2873358.0
275,Tongliao,China,CHN,minor,43.654,122.243,Inner Mongolia,2873168.0
276,Chaoyang,China,CHN,,41.571,120.453,Liaoning,2872857.0
277,La Paz,Bolivia,BOL,primary,-16.4958,-68.1333,La Paz,2867504.0
278,Pyongyang,"Korea, North",PRK,primary,39.0167,125.7475,P’yŏngyang,2863000.0
279,Tampa,United States,USA,,27.9945,-82.4447,Florida,2861173.0
280,Shaoguan,China,CHN,minor,24.811,113.597,Guangdong,2855131.0
281,Heyuan,China,CHN,minor,23.7443,114.7002,Guangdong,2837686.0
282,Brasília,Brazil,BRA,primary,-15.7939,-47.8828,Distrito Federal,2817068.0
283,Omdurman,Sudan,SDN,,15.65,32.4833,Khartoum,2805396.0
284,Malang,Indonesia,IDN,,-7.98,112.62,Jawa Timur,2795209.0
285,Stuttgart,Germany,DEU,admin,48.7775,9.18,Baden-Württemberg,2787724.0
286,Daqing,China,CHN,minor,46.589,125.104,Heilongjiang,2781562.0
287,Rome,Italy,ITA,primary,41.8933,12.4828,Lazio,2748109.0
288,Brooklyn,United States,USA,,40.6501,-73.9496,New York,2736074.0
289,Kaohsiung,Taiwan,TWN,admin,22.615,120.2975,Kaohsiung,2733964.0
290,Xiangtan,China,CHN,,27.8313,112.9454,Hunan,2726181.0
291,Longyan,China,CHN,minor,25.076,117.017,Fujian,2723637.0
292,Baotou,China,CHN,,40.6213,109.9532,Inner Mongolia,2709378.0
293,Handan,China,CHN,minor,36.601,114.487,Hebei,2708015.0
294,Jinzhou,China,CHN,,41.129,121.148,Liaoning,2703853.0
295,Kanpur,India,IND,,26.4499,80.3319,Uttar Pradesh,2701324.0
296,Denver,United States,USA,admin,39.762,-104.8758,Colorado,2687458.0
297,Nanping,China,CHN,minor,26.6418,118.1774,Fujian,2680645.0
298,Gāzipura,Bangladesh,BGD,,23.9889,90.375,Dhaka,2674697.0
299,Shanwei,China,CHN,minor,22.7872,115.3756,Guangdong,2672819.0
300,Chaozhou,China,CHN,minor,23.658,116.622,Guangdong,2656600.0
301,Guayaquil,Ecuador,ECU,admin,-2.19,-79.8875,Guayas,2650288.0
302,Weifang,China,CHN,,36.708,119.162,Shandong,2636154.0
303,Huai’an,China,CHN,,33.551,119.113,Jiangsu,2632788.0
304,Zibo,China,CHN,,36.8138,118.055,Shandong,2631647.0
305,Ankang,China,CHN,,32.6854,109.029,Shaanxi,2629906.0
306,Mogadishu,Somalia,SOM,primary,2.0392,45.3419,Banaadir,2610483.0
307,Munich,Germany,DEU,admin,48.1375,11.575,Bavaria,2606021.0
308,Gulou,China,CHN,minor,26.0865,119.298,Fujian,2606000.0
309,Taipei,Taiwan,TWN,primary,25.0375,121.5625,Taipei,2603150.0
310,Bekasi,Indonesia,IDN,,-6.2349,106.9923,Jawa Barat,2590257.0
311,Damascus,Syria,SYR,primary,33.5131,36.2919,Dimashq,2584771.0
312,Sanming,China,CHN,minor,26.2634,117.6389,Fujian,2580000.0
313,Yangjiang,China,CHN,minor,21.857,111.983,Guangdong,2555600.0
314,Jiamusi,China,CHN,minor,46.8,130.319,Heilongjiang,2552097.0
315,Luohe,China,CHN,minor,33.583,114.0109,Henan,2544266.0
316,Medellín,Colombia,COL,admin,6.2308,-75.5906,Antioquia,2529403.0
317,Dingxi,China,CHN,minor,35.608,104.592,Gansu,2524097.0
318,Shaoxing,China,CHN,minor,30.0511,120.5833,Zhejiang,2521964.0
319,Yantai,China,CHN,,37.4646,121.4478,Shandong,2511053.0
320,Huizhou,China,CHN,minor,23.112,114.416,Guangdong,2509243.0
321,Lishui,China,CHN,minor,28.468,119.923,Zhejiang,2507396.0
322,Xuanzhou,China,CHN,,30.939,118.759,Anhui,2500063.0
323,Khowrhesht,Iran,IRN,,36.205,49.6872,Qazvīn,2500000.0
324,Mirzāpur,India,IND,,25.146,82.569,Uttar Pradesh,2496970.0
325,Zigong,China,CHN,,29.339,104.779,Sichuan,2489256.0
326,Hamburg,Germany,DEU,admin,53.55,10.0,Hamburg,2484800.0
327,Guangyuan,China,CHN,,32.436,105.844,Sichuan,2484122.0
328,Cali,Colombia,COL,admin,3.4206,-76.5222,Valle del Cauca,2471474.0
329,Huangshi,China,CHN,minor,30.2011,115.039,Hubei,2469079.0
330,Xining,China,CHN,admin,36.6224,101.7804,Qinghai,2467965.0
331,Lusaka,Zambia,ZMB,primary,-15.4167,28.2833,Lusaka,2467563.0
332,Ouagadougou,Burkina Faso,BFA,primary,12.3686,-1.5275,Centre,2453496.0
333,Yaoundé,Cameroon,CMR,primary,3.8667,11.5167,Centre,2440462.0
334,Zhuhai,China,CHN,minor,22.2716,113.5769,Guangdong,2439585.0
335,Huludao,China,CHN,minor,40.711,120.837,Liaoning,2434194.0
336,Baoshan,China,CHN,,25.112,99.161,Yunnan,2431211.0
337,Mecca,Saudi Arabia,SAU,admin,21.4225,39.8233,Makkah al Mukarramah,2427924.0
338,Vancouver,Canada,CAN,,49.25,-123.1,British Columbia,2426160.0
339,Lianshan,China,CHN,minor,40.7523,120.828,Liaoning,2426000.0
340,Beirut,Lebanon,LBN,primary,33.8983,35.5057,Beyrouth,2421354.0
341,Salvador,Brazil,BRA,admin,-12.9747,-38.4767,Bahia,2418005.0
342,Bucharest,Romania,ROU,primary,44.4325,26.1039,Bucureşti,2412530.0
343,Longba,China,CHN,,33.3702,104.9603,Gansu,2407272.0
344,Nāgpur,India,IND,,21.1497,79.0806,Mahārāshtra,2405665.0
345,Queens,United States,USA,,40.7498,-73.7976,New York,2405464.0
346,Jilin,China,CHN,,43.8519,126.5481,Jilin,2396000.0
347,Tieling,China,CHN,,42.2237,123.726,Liaoning,2388294.0
348,Accra,Ghana,GHA,primary,5.55,-0.2,Greater Accra,2388000.0
349,Yunfu,China,CHN,minor,22.9152,112.0445,Guangdong,2383350.0
350,Bekasi Kota,Indonesia,IDN,,-6.2333,107.0,Jawa Barat,2381053.0
351,Daegu,"Korea, South",KOR,admin,35.8717,128.6017,Daegu,2376044.0
352,Ghāziābād,India,IND,,28.67,77.42,Uttar Pradesh,2375820.0
353,Luoyang,China,CHN,,34.6197,112.4539,Henan,2372571.0
354,Brisbane,Australia,AUS,admin,-27.4678,153.0281,Queensland,2360241.0
355,Anshun,China,CHN,,26.2531,105.9476,Guizhou,2353100.0
356,Riverside,United States,USA,,33.9381,-117.3949,California,2332836.0
357,Yingkou,China,CHN,minor,40.625,122.219,Liaoning,2328582.0
358,Colombo,Sri Lanka,LKA,primary,6.9344,79.8428,Western,2323826.0
359,Yanjiang,China,CHN,minor,30.129,104.627,Sichuan,2308631.0
360,Baku,Azerbaijan,AZE,primary,40.3953,49.8822,Bakı,2300500.0
361,Antananarivo,Madagascar,MDG,primary,-18.91,47.525,Antananarivo,2300000.0
362,Mudanjiang,China,CHN,minor,44.5514,129.6329,Heilongjiang,2290208.0
363,Fukuoka,Japan,JPN,admin,33.59,130.4017,Fukuoka,2286000.0
364,Yan’an,China,CHN,,36.65,109.494,Shaanxi,2282581.0
365,Jincheng,China,CHN,minor,35.491,112.852,Shanxi,2279146.0
366,Nantong,China,CHN,minor,31.981,120.894,Jiangsu,2261382.0
367,Lincang,China,CHN,,23.884,100.089,Yunnan,2257991.0
368,Yuxi,China,CHN,minor,24.347,102.527,Yunnan,2249502.0
369,Las Vegas,United States,USA,,36.2333,-115.2654,Nevada,2248047.0
370,Caracas,Venezuela,VEN,primary,10.4806,-66.9036,Distrito Capital,2245744.0
371,Tangerang,Indonesia,IDN,,-6.1703,106.6403,Jawa Barat,2237006.0
372,Laibin,China,CHN,minor,23.7501,109.2212,Guangxi,2233900.0
373,Konya,Turkey,TUR,admin,37.8667,32.4833,Konya,2232374.0
374,Supaul,India,IND,,26.126,86.605,Bihār,2229076.0
375,Vienna,Austria,AUT,primary,48.2083,16.3725,Wien,2223236.0
376,Eşfahān,Iran,IRN,admin,32.6447,51.6675,Eşfahān,2219343.0
377,Baltimore,United States,USA,,39.3051,-76.6144,Maryland,2196524.0
378,Shengli,China,CHN,minor,37.434,118.6746,Shandong,2193518.0
379,Dandong,China,CHN,,40.1167,124.3833,Liaoning,2188436.0
380,Qinbaling,China,CHN,,35.7278,107.64,Gansu,2179716.0
381,Gaoping,China,CHN,minor,30.7824,106.1281,Sichuan,2174000.0
382,Awka,Nigeria,NGA,admin,6.2069,7.0678,Anambra,2171900.0
383,Taizhou,China,CHN,minor,28.6557,121.4208,Zhejiang,2162461.0
384,Ma’anshan,China,CHN,minor,31.669,118.507,Anhui,2159930.0
385,Harare,Zimbabwe,ZWE,primary,-17.8292,31.0522,Harare,2150000.0
386,Perth,Australia,AUS,admin,-31.9559,115.8606,Western Australia,2141834.0
387,St. Louis,United States,USA,,38.6359,-90.2451,Missouri,2130881.0
388,Phnom Penh,Cambodia,KHM,primary,11.5694,104.9211,Phnom Penh,2129371.0
389,Depok,Indonesia,IDN,,-6.394,106.8225,Jawa Barat,2123349.0
390,Stockholm,Sweden,SWE,primary,59.3294,18.0686,Stockholm,2121000.0
391,Puning,China,CHN,,23.298,116.166,Guangdong,2118200.0
392,Huaibei,China,CHN,,33.956,116.798,Anhui,2114276.0
393,Kowloon,Hong Kong,HKG,,22.3167,114.1833,,2108419.0
394,Córdoba,Argentina,ARG,admin,-31.4167,-64.1833,Córdoba,2106734.0
395,Haiphong,Vietnam,VNM,admin,20.8651,106.6838,Hải Phòng,2103500.0
396,Zamboanga City,Philippines,PHL,admin,6.9042,122.0761,Zamboanga,2100000.0
397,Chongzuo,China,CHN,minor,22.377,107.365,Guangxi,2099400.0
398,Rawalpindi,Pakistan,PAK,minor,33.6,73.0333,Punjab,2098231.0
399,Portland,United States,USA,,45.5371,-122.65,Oregon,2095808.0
400,Kano,Nigeria,NGA,admin,12.0,8.5167,Kano,2095000.0
401,Yushan,China,CHN,minor,31.322,120.985,Jiangsu,2092496.0
402,Havana,Cuba,CUB,primary,23.1367,-82.3589,La Habana,2089532.0
403,Hezhou,China,CHN,minor,24.4042,111.5672,Guangxi,2072600.0
404,Pingliang,China,CHN,minor,35.5424,106.6649,Gansu,2068033.0
405,Vadodara,India,IND,,22.3,73.2,Gujarāt,2065771.0
406,Manaus,Brazil,BRA,admin,-3.1189,-60.0217,Amazonas,2063547.0
407,Qingyang,China,CHN,minor,24.7816,118.5517,Fujian,2061600.0
408,San Antonio,United States,USA,,29.4632,-98.5238,Texas,2058444.0
409,Rājkot,India,IND,,22.3,70.7833,Gujarāt,2043000.0
410,Shangzhou,China,CHN,,33.868,109.9244,Shaanxi,2041231.0
411,Vishākhapatnam,India,IND,,17.7042,83.2978,Andhra Pradesh,2035922.0
412,Sanmenxia,China,CHN,,34.7732,111.2004,Henan,2034872.0
413,Baicheng,China,CHN,minor,45.62,122.838,Jilin,2032356.0
414,Gujranwala,Pakistan,PAK,minor,32.1567,74.19,Punjab,2027001.0
415,Aleppo,Syria,SYR,admin,36.2,37.16,Ḩalab,2003671.0
416,Tijuana,Mexico,MEX,minor,32.525,-117.0333,Baja California,2002000.0
417,Bamenda,Cameroon,CMR,admin,5.9614,10.1517,North-West,2000000.0
418,Minsk,Belarus,BLR,primary,53.9,27.5667,Minsk,1995471.0
419,Indore,India,IND,,22.7167,75.8472,Madhya Pradesh,1994397.0
420,Karaj,Iran,IRN,admin,35.8272,50.9489,Alborz,1973470.0
421,Kananga,Congo (Kinshasa),COD,admin,-5.897,22.4488,Kasaï Central,1971704.0
422,Peshawar,Pakistan,PAK,admin,34.0144,71.5675,Khyber Pakhtunkhwa,1970042.0
423,Sapporo,Japan,JPN,admin,43.0619,141.3544,Hokkaidō,1959313.0
424,Sacramento,United States,USA,admin,38.5677,-121.4685,California,1957738.0
425,Tilburg,Netherlands,NLD,minor,51.55,5.0833,Noord-Brabant,1944588.0
426,Pingxiang,China,CHN,minor,27.659,113.887,Jiangxi,1933200.0
427,Ecatepec,Mexico,MEX,minor,19.6097,-99.06,México,1929926.0
428,Almaty,Kazakhstan,KAZ,admin,43.24,76.915,Almaty,1916822.0
429,Austin,United States,USA,admin,30.3005,-97.7522,Texas,1905945.0
430,Yinchuan,China,CHN,admin,38.485,106.225,Ningxia,1901793.0
431,Santos,Brazil,BRA,,-23.9369,-46.325,São Paulo,1897551.0
432,Blantyre,Malawi,MWI,admin,-15.7861,35.0058,Blantyre,1895973.0
433,Thāne,India,IND,,19.1972,72.9722,Mahārāshtra,1886941.0
434,Orlando,United States,USA,,28.4773,-81.337,Florida,1882705.0
435,Tainan,Taiwan,TWN,admin,22.9833,120.1833,Tainan,1874686.0
436,Xiping,China,CHN,minor,40.082,113.2981,Shanxi,1873000.0
437,Multan,Pakistan,PAK,minor,30.1978,71.4697,Punjab,1871843.0
438,Santa Cruz,Bolivia,BOL,admin,-17.8,-63.1833,Santa Cruz,1867673.0
439,Port Harcourt,Nigeria,NGA,admin,4.8242,7.0336,Rivers,1865000.0
440,Jixi,China,CHN,minor,45.295,130.969,Heilongjiang,1862165.0
441,Fushun,China,CHN,,41.881,123.957,Liaoning,1861372.0
442,Warsaw,Poland,POL,primary,52.23,21.0111,Mazowieckie,1860281.0
443,Beihai,China,CHN,minor,21.481,109.12,Guangxi,1853227.0
444,Fuxin,China,CHN,,42.022,121.67,Liaoning,1819339.0
445,Wuwei,China,CHN,minor,37.929,102.638,Gansu,1815059.0
446,Siping,China,CHN,minor,43.1668,124.3506,Jilin,1814733.0
447,San Juan,Puerto Rico,PRI,primary,18.3985,-66.061,Puerto Rico,1814587.0
448,Mersin,Turkey,TUR,admin,36.8,34.6333,Mersin,1814468.0
449,Bhopāl,India,IND,admin,23.2599,77.4126,Madhya Pradesh,1798218.0
450,Mosul,Iraq,IRQ,admin,36.34,43.13,Nīnawá,1792000.0
451,Lubumbashi,Congo (Kinshasa),COD,admin,-11.6647,27.4794,Haut-Katanga,1786397.0
452,Davao,Philippines,PHL,admin,7.07,125.6,Davao,1776949.0
453,Curitiba,Brazil,BRA,admin,-25.4297,-49.2711,Paraná,1773733.0
454,San Jose,United States,USA,,37.3012,-121.848,California,1771413.0
455,Shuyangzha,China,CHN,,34.1299,118.7734,Jiangsu,1770000.0
456,Adana,Turkey,TUR,admin,37.0,35.3213,Adana,1765981.0
457,Quito,Ecuador,ECU,primary,-0.22,-78.5125,Pichincha,1763275.0
458,Pittsburgh,United States,USA,,40.4397,-79.9763,Pennsylvania,1749091.0
459,Brazzaville,Congo (Brazzaville),COG,primary,-4.2694,15.2711,Brazzaville,1733263.0
460,Hyderabad City,Pakistan,PAK,minor,25.3792,68.3683,Sindh,1732693.0
461,Diyarbakır,Turkey,TUR,admin,37.91,40.24,Diyarbakır,1732396.0
462,Indianapolis,United States,USA,admin,39.7771,-86.1458,Indiana,1729849.0
463,Pimpri-Chinchwad,India,IND,,18.6186,73.8037,Mahārāshtra,1727692.0
464,Masqaţ,Oman,OMN,,23.5889,58.4083,Masqaţ,1720000.0
465,Montevideo,Uruguay,URY,primary,-34.8836,-56.1819,Montevideo,1719453.0
466,Shuozhou,China,CHN,minor,39.3317,112.4329,Shanxi,1714857.0
467,Manhattan,United States,USA,,40.7834,-73.9662,New York,1694263.0
468,Cincinnati,United States,USA,,39.1413,-84.506,Ohio,1692702.0
469,Kansas City,United States,USA,,39.1238,-94.5541,Missouri,1689556.0
470,Patna,India,IND,admin,25.594,85.1376,Bihār,1684222.0
471,Tegucigalpa,Honduras,HND,primary,14.1058,-87.2047,Francisco Morazán,1682725.0
472,Kampala,Uganda,UGA,primary,0.3136,32.5811,Kampala,1680600.0
473,Cleveland,United States,USA,,41.4764,-81.6805,Ohio,1680247.0
474,Sanzhou,China,CHN,,30.82,108.4,Chongqing,1680000.0
475,Changshu,China,CHN,,31.656,120.753,Jiangsu,1677050.0
476,Heihe,China,CHN,minor,50.2401,127.521,Heilongjiang,1673899.0
477,Conakry,Guinea,GIN,primary,9.5092,-13.7122,Conakry,1667864.0
478,Ximeicun,China,CHN,,24.9612,118.3849,Fujian,1663542.0
479,Caloocan City,Philippines,PHL,admin,14.65,120.97,Caloocan,1661584.0
480,Masvingo,Zimbabwe,ZWE,admin,-20.0744,30.8328,Masvingo,1638528.0
481,Zhongli,Taiwan,TWN,,24.965,121.2168,Taoyuan,1632616.0
482,Novosibirsk,Russia,RUS,admin,55.05,82.95,Novosibirskaya Oblast’,1625631.0
483,Bilāspur,India,IND,,22.09,82.15,Chhattīsgarh,1625502.0
484,Semarang,Indonesia,IDN,admin,-6.99,110.4225,Jawa Tengah,1621384.0
485,Jingdezhen,China,CHN,minor,29.2917,117.1986,Jiangxi,1618979.0
486,Ludhiāna,India,IND,,30.91,75.85,Punjab,1618879.0
487,Liaoyang,China,CHN,,41.279,123.176,Liaoning,1604580.0
488,Chengtangcun,China,CHN,,35.0833,117.15,Shandong,1603659.0
489,Rājshāhi,Bangladesh,BGD,admin,24.3667,88.6,Rājshāhi,1600000.0
490,Balandougou,Mali,MLI,,13.3558,-9.5517,Kayes,1596882.0
491,Jiangyin,China,CHN,,31.839,120.295,Jiangsu,1595138.0
492,Valencia,Spain,ESP,admin,39.47,-0.3764,Valencia,1595000.0
493,Āgra,India,IND,,27.18,78.02,Uttar Pradesh,1585704.0
494,León de los Aldama,Mexico,MEX,minor,21.1167,-101.6833,Guanajuato,1579803.0
495,Puebla,Mexico,MEX,admin,19.0333,-98.1833,Puebla,1576259.0
496,Columbus,United States,USA,admin,39.9862,-82.9855,Ohio,1572546.0
497,Yopougon,Côte d’Ivoire,CIV,,5.3167,-4.0667,Abidjan,1571065.0
498,Hebi,China,CHN,,35.748,114.297,Henan,1569208.0
499,Shīrāz,Iran,IRN,admin,29.61,52.5425,Fārs,1565572.0
500,Madurai,India,IND,minor,9.9252,78.1198,Tamil Nādu,1561129.0
501,Huzhou,China,CHN,minor,30.8925,120.0875,Zhejiang,1558826.0
502,Tabrīz,Iran,IRN,admin,38.0814,46.3006,Āz̄arbāyjān-e Sharqī,1558693.0
503,Jamshedpur,India,IND,,22.7925,86.1842,Jhārkhand,1558000.0
504,Maracaibo,Venezuela,VEN,admin,10.6333,-71.6333,Zulia,1551539.0
505,Sofia,Bulgaria,BGR,primary,42.7,23.33,Sofia-Grad,1547779.0
506,San José,Costa Rica,CRI,primary,9.9325,-84.08,San José,1543000.0
507,Prayagraj,India,IND,,25.4358,81.8464,Uttar Pradesh,1536218.0
508,Palembang,Indonesia,IDN,admin,-2.9861,104.7556,Sumatera Selatan,1535952.0
509,Kawasaki,Japan,JPN,,35.5167,139.7,Kanagawa,1531646.0
510,Kōbe,Japan,JPN,admin,34.69,135.1956,Hyōgo,1521707.0
511,Jiaxing,China,CHN,minor,30.747,120.756,Zhejiang,1518654.0
512,Kigali,Rwanda,RWA,primary,-1.9439,30.0594,Kigali,1518632.0
513,Zhangjiajie,China,CHN,minor,29.117,110.479,Hunan,1517027.0
514,Baiyin,China,CHN,minor,36.5451,104.1389,Gansu,1512110.0
515,Guiping,China,CHN,minor,23.4,110.0833,Guangxi,1511011.0
516,Lianjiang,China,CHN,,21.7333,110.2833,Guangdong,1509400.0
517,Jianguang,China,CHN,,28.1958,115.7833,Jiangxi,1507402.0
518,Yucheng,China,CHN,minor,30.01,103.0415,Sichuan,1507258.0
519,Xushan,China,CHN,minor,30.1667,121.2333,Zhejiang,1502000.0
520,Panama City,Panama,PAN,primary,8.9833,-79.5167,Panamá,1500189.0
521,Nneyi-Umuleri,Nigeria,NGA,,6.3333,6.8333,Anambra,1500000.0
522,Leizhou,China,CHN,minor,20.9143,110.0967,Guangdong,1494700.0
523,Gwangju,"Korea, South",KOR,admin,35.1653,126.8486,Gwangju,1490092.0
524,Katako-Kombe,Congo (Kinshasa),COD,,-3.4,24.42,Sankuru,1488922.0
525,Recife,Brazil,BRA,admin,-8.05,-34.9,Pernambuco,1488920.0
526,Nāsik,India,IND,,19.9975,73.7898,Mahārāshtra,1486053.0
527,Valencia,Venezuela,VEN,admin,10.1833,-68.0,Carabobo,1484430.0
528,Onitsha,Nigeria,NGA,minor,6.1667,6.7833,Anambra,1483000.0
529,Abu Dhabi,United Arab Emirates,ARE,primary,24.4667,54.3667,Abū Z̧aby,1483000.0
530,Zapopan,Mexico,MEX,minor,20.7167,-103.4,Jalisco,1476491.0
531,Daejeon,"Korea, South",KOR,admin,36.35,127.385,Daejeon,1475221.0
532,Bronx,United States,USA,,40.8501,-73.8662,New York,1472654.0
533,Yekaterinburg,Russia,RUS,admin,56.8356,60.6128,Sverdlovskaya Oblast’,1468833.0
534,Huazhou,China,CHN,minor,32.688,112.087,Henan,1468061.0
535,Jinhua,China,CHN,minor,29.079,119.647,Zhejiang,1463990.0
536,Kyōto,Japan,JPN,admin,35.0117,135.7683,Kyōto,1463723.0
537,Amsterdam,Netherlands,NLD,primary,52.3728,4.8936,Noord-Holland,1459402.0
538,Pizhou,China,CHN,,34.398,117.89,Jiangsu,1458038.0
539,Kismaayo,Somalia,SOM,admin,-0.3581,42.5453,Jubbada Hoose,1458000.0
540,Yangshe,China,CHN,minor,31.8767,120.556,Jiangsu,1447600.0
541,Virginia Beach,United States,USA,,36.7335,-76.0435,Virginia,1443020.0
542,Dakar,Senegal,SEN,primary,14.6928,-17.4467,Dakar,1438725.0
543,Goiânia,Brazil,BRA,admin,-16.6667,-49.25,Goiás,1437237.0
544,Charlotte,United States,USA,,35.2083,-80.8303,North Carolina,1427444.0
545,Rui’an,China,CHN,,27.7833,120.625,Zhejiang,1424667.0
546,Muscat,Oman,OMN,primary,23.6139,58.5922,Masqaţ,1421409.0
547,Kharkiv,Ukraine,UKR,admin,49.9925,36.2311,Kharkivska Oblast,1421125.0
548,Wenling,China,CHN,,28.3667,121.3667,Zhejiang,1416199.0
549,Gaozhou,China,CHN,minor,21.9244,110.8422,Guangdong,1414100.0
550,Farīdābād,India,IND,,28.4211,77.3078,Haryāna,1414050.0
551,Medina,Saudi Arabia,SAU,admin,24.47,39.61,Al Madīnah al Munawwarah,1411599.0
552,Khulna,Bangladesh,BGD,admin,22.8167,89.55,Khulna,1400689.0
553,Ulaanbaatar,Mongolia,MNG,primary,47.9203,106.9172,Ulaanbaatar,1396288.0
554,Fuqing,China,CHN,minor,25.7167,119.3833,Fujian,1390487.0
555,Kayseri,Turkey,TUR,admin,38.7225,35.4875,Kayseri,1389680.0
556,Tel Aviv-Yafo,Israel,ISR,admin,32.08,34.78,Tel Aviv,1388400.0
557,Wuzhong,China,CHN,minor,37.9978,106.1986,Ningxia,1382713.0
558,Pingdu,China,CHN,,36.7769,119.9884,Shandong,1378900.0
559,Sangereng,Indonesia,IDN,,-6.2889,106.7181,Jawa Barat,1378466.0
560,Yangquan,China,CHN,minor,37.8571,113.5804,Shanxi,1368502.0
561,Samsun,Turkey,TUR,admin,41.2903,36.3336,Samsun,1368488.0
562,Yutan,China,CHN,minor,28.278,112.552,Hunan,1368117.0
563,Copenhagen,Denmark,DNK,primary,55.6761,12.5683,Hovedstaden,1366301.0
564,Helsinki,Finland,FIN,primary,60.1708,24.9375,Uusimaa,1360075.0
565,Prague,Czechia,CZE,primary,50.0875,14.4214,Praha,1357326.0
566,Milan,Italy,ITA,admin,45.4669,9.19,Lombardy,1354196.0
567,Auckland,New Zealand,NZL,admin,-36.8406,174.74,Auckland,1346091.0
568,Santiago,Dominican Republic,DOM,admin,19.4572,-70.6889,Cibao Norte,1343423.0
569,Chizhou,China,CHN,minor,30.6654,117.4916,Anhui,1342764.0
570,Makassar,Indonesia,IDN,admin,-5.1619,119.4362,Sulawesi Selatan,1338663.0
571,Liangshi,China,CHN,,27.26,111.7442,Hunan,1335900.0
572,Porto Alegre,Brazil,BRA,admin,-30.0331,-51.23,Rio Grande do Sul,1332570.0
573,Huangshan,China,CHN,minor,29.7149,118.3376,Anhui,1330565.0
574,Barranquilla,Colombia,COL,admin,10.9833,-74.8019,Atlántico,1326588.0
575,Al Başrah,Iraq,IRQ,admin,30.515,47.81,Al Başrah,1326564.0
576,Benxi,China,CHN,,41.4868,123.685,Liaoning,1326018.0
577,Saitama,Japan,JPN,admin,35.8614,139.6456,Saitama,1325843.0
578,Guarulhos,Brazil,BRA,,-23.4628,-46.5328,São Paulo,1324781.0
579,Juárez,Mexico,MEX,minor,31.745,-106.485,Chihuahua,1321004.0
580,Mandalay,Burma,MMR,admin,21.9831,96.0844,Mandalay,1319452.0
581,Xintai,China,CHN,,35.909,117.768,Shandong,1315942.0
582,Wusong,China,CHN,minor,30.9333,117.7667,Anhui,1311726.0
583,Calgary,Canada,CAN,,51.05,-114.0667,Alberta,1306784.0
584,Meerut,India,IND,,28.98,77.71,Uttar Pradesh,1305429.0
585,Yushu,China,CHN,minor,44.826,126.55,Jilin,1304436.0
586,Belém,Brazil,BRA,admin,-1.4558,-48.5039,Pará,1303389.0
587,Kuaidamao,China,CHN,minor,41.7283,125.9397,Jilin,1302778.0
588,Huazhou,China,CHN,,21.664,110.6396,Guangdong,1302100.0
589,Baishan,China,CHN,minor,41.944,126.4147,Jilin,1296127.0
590,Adelaide,Australia,AUS,admin,-34.9275,138.6,South Australia,1295714.0
591,Haicheng,China,CHN,minor,40.8824,122.6852,Liaoning,1293877.0
592,Milwaukee,United States,USA,,43.0642,-87.9675,Wisconsin,1290940.0
593,Providence,United States,USA,admin,41.823,-71.4187,Rhode Island,1290271.0
594,Jacksonville,United States,USA,,30.3322,-81.6749,Florida,1288298.0
595,Yicheng,China,CHN,minor,31.36,119.815,Jiangsu,1285785.0
596,Cacuaco,Angola,AGO,,-8.8053,13.2444,Luanda,1279488.0
597,Porto,Portugal,PRT,admin,41.1621,-8.622,Porto,1278210.0
598,Rosario,Argentina,ARG,minor,-32.9575,-60.6394,Santa Fe,1276000.0
599,Canagatan,Philippines,PHL,,18.0,121.8,Cagayan,1273219.0
600,Soweto,South Africa,ZAF,,-26.2678,27.8585,Gauteng,1271628.0
601,Bagam,Indonesia,IDN,,1.13,104.0531,Kepulauan Riau,1269820.0
602,Jabalpur,India,IND,,23.1667,79.9333,Madhya Pradesh,1267564.0
603,Rucheng,China,CHN,minor,32.246,120.591,Jiangsu,1267066.0
604,Huaiyin,China,CHN,,33.5819,119.028,Jiangsu,1264000.0
605,Dublin,Ireland,IRL,primary,53.35,-6.2603,Dublin,1263219.0
606,Kazan,Russia,RUS,admin,55.7964,49.1089,Tatarstan,1259173.0
607,Dayan,China,CHN,,26.8552,100.2259,Yunnan,1253878.0
608,Shaoyang,China,CHN,minor,32.912,119.8526,Jiangsu,1253548.0
609,Balıkesir,Turkey,TUR,admin,39.6333,27.8833,Balıkesir,1250610.0
610,Comayagüela,Honduras,HND,,14.098,-87.21,Francisco Morazán,1250000.0
611,Laiwu,China,CHN,,36.1833,117.6667,Shandong,1248636.0
612,Sharjah,United Arab Emirates,ARE,admin,25.3575,55.3908,Ash Shāriqah,1247749.0
613,Jingling,China,CHN,,30.664,113.167,Hubei,1247400.0
614,Kalyān,India,IND,,19.2502,73.1602,Mahārāshtra,1246381.0
615,Nizhniy Novgorod,Russia,RUS,admin,56.3269,44.0075,Nizhegorodskaya Oblast’,1244254.0
616,Yongcheng,China,CHN,,33.9299,116.45,Henan,1240382.0
617,Sumedang,Indonesia,IDN,,-6.84,107.9208,Jawa Barat,1240000.0
618,Cần Thơ,Vietnam,VNM,admin,10.0333,105.7833,Cần Thơ,1237300.0
619,Brussels,Belgium,BEL,primary,50.8467,4.3525,Brussels-Capital Region,1235192.0
620,Suwon,"Korea, South",KOR,admin,37.2667,127.0167,Gyeonggi,1234300.0
621,Yiwu,China,CHN,minor,29.3069,120.0753,Zhejiang,1234015.0
622,Beidao,China,CHN,minor,34.602,105.918,Gansu,1225000.0
623,Vasai-Virar,India,IND,,19.3607,72.7956,Mahārāshtra,1221233.0
624,Xiangshui,China,CHN,,26.5964,104.8314,Guizhou,1221000.0
625,Dadukou,China,CHN,minor,26.5824,101.7184,Sichuan,1214121.0
626,Campinas,Brazil,BRA,,-22.9058,-47.0608,São Paulo,1213792.0
627,Lingcheng,China,CHN,,22.7,110.35,Guangxi,1211637.0
628,Shuangyashan,China,CHN,minor,46.6762,131.1416,Heilongjiang,1208803.0
629,Mombasa,Kenya,KEN,admin,-4.05,39.6667,Mombasa,1208333.0
630,Najafgarh,India,IND,,28.6092,76.9798,Delhi,1203180.0
631,Xinyu,China,CHN,minor,27.8186,114.9167,Jiangxi,1202499.0
632,Qom,Iran,IRN,admin,34.64,50.8764,Qom,1201158.0
633,Hargeysa,Somalia,SOM,admin,9.5631,44.0675,Woqooyi Galbeed,1200000.0
634,Baidoa,Somalia,SOM,admin,3.1167,43.65,Bay,1200000.0
635,Zhangye,China,CHN,minor,38.9248,100.4499,Gansu,1199515.0
636,Vārānasi,India,IND,,25.3189,83.0128,Uttar Pradesh,1198491.0
637,Hiroshima,Japan,JPN,admin,34.3914,132.4519,Hiroshima,1198021.0
638,Chiang Mai,Thailand,THA,admin,18.7953,98.9986,Chiang Mai,1198000.0
639,Belgrade,Serbia,SRB,primary,44.82,20.46,Beograd,1197714.0
640,Maiduguri,Nigeria,NGA,admin,11.8333,13.15,Borno,1197497.0
641,Chelyabinsk,Russia,RUS,admin,55.1547,61.3758,Chelyabinskaya Oblast’,1196680.0
642,Batam Centre,Indonesia,IDN,,1.13,104.0531,Kepulauan Riau,1196396.0
643,Rongcheng,China,CHN,,26.218,104.103,Yunnan,1189813.0
644,Mbandaka,Congo (Kinshasa),COD,admin,0.0478,18.2558,Équateur,1187837.0
645,Doha,Qatar,QAT,primary,25.2867,51.5333,Ad Dawḩah,1186023.0
646,Ahvāz,Iran,IRN,admin,31.3047,48.6783,Khūzestān,1184788.0
647,Shymkent,Kazakhstan,KAZ,admin,42.3167,69.5958,Shymkent,1184113.0
648,Tripoli,Libya,LBY,primary,32.8872,13.1914,Ţarābulus,1183000.0
649,Srīnagar,India,IND,admin,34.09,74.79,Jammu and Kashmīr,1180570.0
650,Nashville,United States,USA,admin,36.1715,-86.7842,Tennessee,1177657.0
651,Liaoyuan,China,CHN,minor,42.888,125.1447,Jilin,1176239.0
652,Aurangābād,India,IND,,19.88,75.32,Mahārāshtra,1175116.0
653,Cilacap,Indonesia,IDN,minor,-7.7167,109.017,Jawa Tengah,1174964.0
654,Salt Lake City,United States,USA,admin,40.7776,-111.9311,Utah,1173879.0
655,Omsk,Russia,RUS,admin,54.9833,73.3667,Omskaya Oblast’,1172070.0
656,Pikine,Senegal,SEN,,14.75,-17.4,Dakar,1170791.0
657,Samara,Russia,RUS,admin,53.2028,50.1408,Samarskaya Oblast’,1169719.0
658,Guankou,China,CHN,minor,28.1637,113.6433,Hunan,1168056.0
659,Bandar Lampung,Indonesia,IDN,admin,-5.45,105.2667,Lampung,1166761.0
660,Raleigh,United States,USA,admin,35.8324,-78.6429,North Carolina,1163152.0
661,Lianyuan,China,CHN,minor,27.692,111.664,Hunan,1162928.0
662,Rongcheng,China,CHN,minor,29.8402,112.9048,Hubei,1162770.0
663,Dhanbād,India,IND,,23.7998,86.4305,Jhārkhand,1162472.0
664,Nay Pyi Taw,Burma,MMR,primary,19.7475,96.115,Nay Pyi Taw,1160242.0
665,Aba,Nigeria,NGA,minor,5.1167,7.3667,Abia,1160000.0
666,Kaiyuan,China,CHN,minor,36.0193,113.86,Henan,1160000.0
667,Zhuji,China,CHN,minor,29.7167,120.2333,Zhejiang,1157938.0
668,Yingtan,China,CHN,,28.2721,117.0395,Jiangxi,1154223.0
669,Edmonton,Canada,CAN,admin,53.5344,-113.4903,Alberta,1151635.0
670,Leiyang,China,CHN,minor,26.4223,112.8598,Hunan,1151554.0
671,Ulsan,"Korea, South",KOR,admin,35.55,129.3167,Ulsan,1150116.0
672,Yichun,China,CHN,minor,47.728,128.841,Heilongjiang,1148126.0
673,Benin City,Nigeria,NGA,admin,6.3333,5.6222,Edo,1147188.0
674,Bujumbura,Burundi,BDI,primary,-3.3833,29.3667,Bujumbura Mairie,1143202.0
675,Guyuan,China,CHN,,36.01,106.257,Ningxia,1142142.0
676,Xiantao,China,CHN,,30.328,113.443,Hubei,1140100.0
677,Rostov,Russia,RUS,admin,47.2225,39.71,Rostovskaya Oblast’,1137704.0
678,Maputo,Mozambique,MOZ,primary,-25.9667,32.5833,Maputo,1133200.0
679,Bukavu,Congo (Kinshasa),COD,admin,-2.5,28.8667,Sud-Kivu,1133000.0
680,Amritsar,India,IND,,31.64,74.86,Punjab,1132383.0
681,Shagamu,Nigeria,NGA,minor,6.8333,3.65,Ogun,1132270.0
682,Yingchuan,China,CHN,minor,34.1511,113.4733,Henan,1131896.0
683,Alīgarh,India,IND,,27.88,78.08,Uttar Pradesh,1131160.0
684,Santo Domingo,Dominican Republic,DOM,primary,18.4667,-69.95,Ozama,1128678.0
685,Bogor,Indonesia,IDN,,-6.5966,106.7972,Jawa Barat,1127408.0
686,Bishkek,Kyrgyzstan,KGZ,primary,42.8747,74.6122,Bishkek,1120827.0
687,Tbilisi,Georgia,GEO,primary,41.7225,44.7925,Tbilisi,1118035.0
688,Guwāhāti,India,IND,,26.1722,91.7458,Assam,1116267.0
689,Ufa,Russia,RUS,admin,54.7261,55.9475,Bashkortostan,1115560.0
690,Fès,Morocco,MAR,admin,34.0433,-5.0033,Fès-Meknès,1112072.0
691,Mwanza,Tanzania,TZA,admin,-2.5167,32.9,Mwanza,1104521.0
692,Biên Hòa,Vietnam,VNM,admin,10.95,106.8167,Đồng Nai,1104000.0
693,Mexicali,Mexico,MEX,admin,32.6633,-115.4678,Baja California,1102342.0
694,Sevilla,Spain,ESP,admin,37.39,-5.99,Andalusia,1100000.0
695,Ikare,Nigeria,NGA,minor,7.5167,5.75,Ondo,1099931.0
696,Dongtai,China,CHN,minor,32.795,120.519,Jiangsu,1098100.0
697,Dingzhou,China,CHN,minor,38.516,114.99,Hebei,1095986.0
698,Xibeijie,China,CHN,minor,39.7334,98.4943,Gansu,1095947.0
699,Tamale,Ghana,GHA,admin,9.4075,-0.8533,Northern,1095808.0
700,Yuyao,China,CHN,,30.05,121.15,Zhejiang,1095000.0
701,Hanchuan,China,CHN,,30.652,113.8274,Hubei,1092700.0
702,Gongzhuling,China,CHN,minor,43.5053,124.8224,Jilin,1092692.0
703,N’Djamena,Chad,TCD,primary,12.11,15.05,N’Djamena,1092066.0
704,Ubungo,Tanzania,TZA,,-6.7889,39.2056,Dar es Salaam,1086912.0
705,Cologne,Germany,DEU,,50.9364,6.9528,North Rhine-Westphalia,1084831.0
706,Krasnoyarsk,Russia,RUS,admin,56.0089,92.8719,Krasnoyarskiy Kray,1083865.0
707,Zhufeng,China,CHN,,36.0,119.4167,Shandong,1081960.0
708,Ezhou,China,CHN,minor,30.3914,114.8949,Hubei,1079353.0
709,Astana,Kazakhstan,KAZ,primary,51.1472,71.4222,Nur-Sultan,1078362.0
710,Nezahualcóyotl,Mexico,MEX,minor,19.4081,-99.0186,México,1077208.0
711,Nouakchott,Mauritania,MRT,primary,18.0858,-15.9785,Nouakchott Ouest,1077169.0
712,Hāora,India,IND,,22.58,88.3294,West Bengal,1077075.0
713,Tongjin,"Korea, South",KOR,,37.2333,127.2,Gyeonggi,1076369.0
714,Xiashi,China,CHN,minor,30.5333,120.6833,Zhejiang,1076199.0
715,Yerevan,Armenia,ARM,primary,40.1814,44.5144,Yerevan,1075800.0
716,Rānchi,India,IND,admin,23.36,85.33,Jhārkhand,1073440.0
717,Richmond,United States,USA,admin,37.5295,-77.4756,Virginia,1073223.0
718,Ciudad Nezahualcóyotl,Mexico,MEX,,19.4006,-99.0148,México,1072676.0
719,Gwalior,India,IND,,26.2124,78.1772,Madhya Pradesh,1069276.0
720,Ottawa,Canada,CAN,primary,45.4247,-75.695,Ontario,1068821.0
721,Zhongwei,China,CHN,minor,37.5002,105.1968,Ningxia,1067336.0
722,Oslo,Norway,NOR,primary,59.9133,10.7389,Oslo,1064235.0
723,Goyang,"Korea, South",KOR,minor,37.65,126.8,Gyeonggi,1061929.0
724,Sendai,Japan,JPN,admin,38.2682,140.8694,Miyagi,1061177.0
725,Mizhou,China,CHN,minor,35.99,119.3801,Shandong,1060000.0
726,Xishan,China,CHN,minor,27.6461,113.497,Hunan,1060000.0
727,Barquisimeto,Venezuela,VEN,admin,10.0636,-69.3347,Lara,1059092.0
728,Hegang,China,CHN,minor,47.3501,130.298,Heilongjiang,1058665.0
729,Chandīgarh,India,IND,admin,30.75,76.78,Chandīgarh,1055450.0
730,Voronezh,Russia,RUS,admin,51.6717,39.2106,Voronezhskaya Oblast’,1051995.0
731,Managua,Nicaragua,NIC,primary,12.1364,-86.2514,Managua,1051236.0
732,Haldwāni,India,IND,,29.22,79.52,Uttarākhand,1050000.0
733,Vijayavāda,India,IND,,16.5193,80.6305,Andhra Pradesh,1048240.0
734,Perm,Russia,RUS,admin,58.0,56.3167,Permskiy Kray,1048005.0
735,Fangchenggang,China,CHN,minor,21.6867,108.3547,Guangxi,1046068.0
736,Jiancheng,China,CHN,minor,30.3931,104.5465,Sichuan,1045900.0
737,Cazenga,Angola,AGO,,-8.8214,13.2911,Luanda,1045722.0
738,Kisangani,Congo (Kinshasa),COD,admin,0.5167,25.2,Tshopo,1040000.0
739,Shouguang,China,CHN,,36.857,118.791,Shandong,1039205.0
740,Memphis,United States,USA,,35.1087,-89.9663,Tennessee,1037998.0
741,São Luís,Brazil,BRA,admin,-2.5283,-44.3044,Maranhão,1037775.0
742,Jodhpur,India,IND,,26.28,73.02,Rājasthān,1033918.0
743,Matola,Mozambique,MOZ,,-25.9667,32.4667,Maputo,1032197.0
744,Ogbomoso,Nigeria,NGA,minor,8.1333,4.25,Oyo,1032000.0
745,Sanya,China,CHN,minor,18.2533,109.5036,Hainan,1031396.0
746,Rangapukur,Bangladesh,BGD,,25.56,89.25,Rangpur,1031388.0
747,Ashgabat,Turkmenistan,TKM,primary,37.9375,58.38,Aşgabat,1030063.0
748,Wutong,China,CHN,minor,30.6333,120.5333,Zhejiang,1029754.0
749,Linhai,China,CHN,,28.85,121.1167,Zhejiang,1028813.0
750,Denizli,Turkey,TUR,admin,37.7833,29.0964,Denizli,1027782.0
751,Niamey,Niger,NER,primary,13.515,2.1175,Niamey,1026848.0
752,Shubrā al Khaymah,Egypt,EGY,,30.1286,31.2422,Al Qalyūbīyah,1025569.0
753,Wafangdian,China,CHN,,39.6271,121.9796,Liaoning,1024876.0
754,Zhongxiang,China,CHN,,31.169,112.5853,Hubei,1022514.0
755,Monrovia,Liberia,LBR,primary,6.3133,-10.8014,Montserrado,1021762.0
756,San Cristóbal,Venezuela,VEN,admin,7.7667,-72.2333,Táchira,1015623.0
757,Islamabad,Pakistan,PAK,primary,33.6931,73.0639,Islamabad,1014825.0
758,Xinyi,China,CHN,,22.3549,110.9468,Guangdong,1013900.0
759,Thủ Đức,Vietnam,VNM,minor,10.8266,106.7609,Hồ Chí Minh,1013795.0
760,Morelia,Mexico,MEX,admin,19.7683,-101.1894,Michoacán,1011704.0
761,Odesa,Ukraine,UKR,admin,46.4775,30.7326,Odeska Oblast,1010537.0
762,Raipur,India,IND,admin,21.2444,81.6306,Chhattīsgarh,1010087.0
763,Changwon,"Korea, South",KOR,admin,35.2708,128.6631,Gyeongnam,1009998.0
764,Arequipa,Peru,PER,admin,-16.4,-71.5333,Arequipa,1008290.0
765,Volgograd,Russia,RUS,admin,48.7086,44.5147,Volgogradskaya Oblast’,1004763.0
766,Zaoyang,China,CHN,,32.129,112.772,Hubei,1004741.0
767,Xingyi,China,CHN,,25.092,104.8955,Guizhou,1004132.0
768,Shuizhai,China,CHN,,33.4433,114.8994,Henan,1003698.0
769,Kota,India,IND,,25.18,75.83,Rājasthān,1001694.0
770,Quetta,Pakistan,PAK,admin,30.1833,67.0,Balochistan,1001205.0
771,Quảng Hà,Vietnam,VNM,,15.9333,108.2667,Quảng Nam,1000000.0
772,Domaa-Ahenkro,Ghana,GHA,,7.2833,-2.8833,Bono,1000000.0
773,Bareilly,India,IND,,28.364,79.415,Uttar Pradesh,1000000.0
774,Oklahoma City,United States,USA,admin,35.4676,-97.5136,Oklahoma,998806.0
775,Bordeaux,France,FRA,admin,44.84,-0.58,Nouvelle-Aquitaine,994920.0
776,Xingcheng,China,CHN,minor,24.1347,115.73,Guangdong,993000.0
777,Taixing,China,CHN,minor,32.159,120.029,Jiangsu,990200.0
778,Xinhualu,China,CHN,minor,34.3964,113.7402,Henan,989900.0
779,Lilongwe,Malawi,MWI,primary,-13.9833,33.7833,Lilongwe,989318.0
780,Port-au-Prince,Haiti,HTI,primary,18.5333,-72.3333,Ouest,987310.0
781,Yingcheng,China,CHN,minor,24.21,113.401,Guangdong,986400.0
782,Al Mijlad,Sudan,SDN,,11.0339,27.74,West Kordofan,985000.0
783,Luocheng,China,CHN,minor,22.7689,111.5697,Guangdong,984100.0
784,Pekanbaru,Indonesia,IDN,admin,0.5092,101.4453,Riau,983356.0
785,Natal,Brazil,BRA,,-6.9838,-60.2699,Amazonas,980588.0
786,Chiba,Japan,JPN,admin,35.6073,140.1064,Chiba,975014.0
787,Kirkuk,Iraq,IRQ,admin,35.4667,44.3167,Karkūk,975000.0
788,Hartford,United States,USA,admin,41.7661,-72.6834,Connecticut,974684.0
789,Huilong,China,CHN,minor,31.87,121.703,Jiangsu,972525.0
790,Wuchuan,China,CHN,,21.441,110.779,Guangdong,972400.0
791,Dnipro,Ukraine,UKR,admin,48.4675,35.04,Dnipropetrovska Oblast,968502.0
792,Nārāyanganj,Bangladesh,BGD,,23.62,90.5,Dhaka,967951.0
793,Gqeberha,South Africa,ZAF,,-33.9581,25.6,Eastern Cape,967677.0
794,Málaga,Spain,ESP,minor,36.7194,-4.42,Andalusia,967250.0
795,Marrakech,Morocco,MAR,admin,31.63,-8.0089,Marrakech-Safi,966987.0
796,Cebu City,Philippines,PHL,admin,10.32,123.75,Cebu,964169.0
797,Louisville,United States,USA,,38.1663,-85.6485,Kentucky,963812.0
798,Asmara,Eritrea,ERI,primary,15.3228,38.925,Ma’ĭkel,963000.0
799,Coimbatore,India,IND,,11.0167,76.9556,Tamil Nādu,959823.0
800,Maceió,Brazil,BRA,admin,-9.6658,-35.735,Alagoas,957916.0
801,Nada,China,CHN,minor,19.5209,109.5808,Hainan,954259.0
802,Taishan,China,CHN,,22.2486,112.785,Guangdong,953900.0
803,Teresina,Brazil,BRA,admin,-5.0949,-42.8042,Piauí,953172.0
804,Solāpur,India,IND,,17.68,75.92,Mahārāshtra,951558.0
805,Freetown,Sierra Leone,SLE,primary,8.4844,-13.2344,Western Area,951000.0
806,Santo Domingo Este,Dominican Republic,DOM,admin,18.4855,-69.8734,Ozama,948855.0
807,Krasnodar,Russia,RUS,admin,45.0333,38.9667,Krasnodarskiy Kray,948827.0
808,Vientiane,Laos,LAO,primary,17.98,102.63,Viangchan,948487.0
809,Tangier,Morocco,MAR,admin,35.7767,-5.8039,Tanger-Tétouan-Al Hoceïma,947952.0
810,Anqiu,China,CHN,,36.478,119.219,Shandong,947723.0
811,Kermānshāh,Iran,IRN,admin,34.3325,47.0933,Kermānshāh,946651.0
812,Feicheng,China,CHN,,36.1861,116.7719,Shandong,946627.0
813,Kibanseke Première,Congo (Kinshasa),COD,,-4.4419,15.395,Kinshasa,946372.0
814,Seberang Jaya,Malaysia,MYS,,5.4083,100.3695,Pulau Pinang,946092.0
815,Buffalo,United States,USA,,42.9018,-78.8487,New York,944589.0
816,Hubli,India,IND,,15.3502,75.1376,Karnātaka,943788.0
817,El Alto,Bolivia,BOL,,-16.5047,-68.1633,La Paz,943000.0
818,Çankaya,Turkey,TUR,minor,39.9244,32.8856,Ankara,942553.0
819,Hwasu-dong,"Korea, South",KOR,,37.1997,126.8314,Gyeonggi,941489.0
820,Setagaya,Japan,JPN,,35.6466,139.6532,Tōkyō,940071.0
821,Keçiören,Turkey,TUR,minor,40.0,32.8667,Ankara,939279.0
822,Jerusalem,Israel,ISR,primary,31.7789,35.2256,Jerusalem,936425.0
823,Khartoum North,Sudan,SDN,,15.6333,32.6333,Khartoum,936349.0
824,Meishan,China,CHN,minor,34.1736,112.839,Henan,936000.0
825,Mushin,Nigeria,NGA,minor,6.5333,3.35,Lagos,935400.0
826,Trujillo,Peru,PER,admin,-8.112,-79.0288,La Libertad,935147.0
827,Kitakyūshū,Japan,JPN,,33.8833,130.8833,Fukuoka,935084.0
828,Aguascalientes,Mexico,MEX,admin,21.876,-102.296,Aguascalientes,934424.0
829,New Orleans,United States,USA,,30.0687,-89.9288,Louisiana,932759.0
830,Fort Worth,United States,USA,,32.7817,-97.3474,Texas,924663.0
831,Taihe,China,CHN,minor,30.8706,105.3784,Sichuan,924531.0
832,Riga,Latvia,LVA,primary,56.9489,24.1064,Rīga,920643.0
833,Xin’an,China,CHN,,34.286,118.355,Jiangsu,920628.0
834,Taihecun,China,CHN,minor,45.771,131.003,Heilongjiang,920471.0
835,Kashgar,China,CHN,minor,39.4681,75.9938,Xinjiang,920000.0
836,Sŏngnam,"Korea, South",KOR,,37.4333,127.15,Gyeonggi,918771.0
837,Trichinopoly,India,IND,,10.7903,78.7047,Tamil Nādu,916857.0
838,Cartagena,Colombia,COL,admin,10.4,-75.5,Bolívar,914552.0
839,Qingzhou,China,CHN,,36.6853,118.4796,Shandong,914047.0
840,Naples,Italy,ITA,admin,40.8333,14.25,Campania,913462.0
841,Santiago del Estero,Argentina,ARG,admin,-27.7833,-64.2667,Santiago del Estero,911506.0
842,Naucalpan de Juárez,Mexico,MEX,minor,19.4753,-99.2378,México,910407.0
843,Daye,China,CHN,,30.0961,114.9804,Hubei,909724.0
844,Hengzhou,China,CHN,minor,22.6799,109.2614,Guangxi,909400.0
845,Padang,Indonesia,IDN,admin,-0.95,100.3531,Sumatera Barat,909040.0
846,Bridgeport,United States,USA,,41.1918,-73.1954,Connecticut,908251.0
847,Owerri,Nigeria,NGA,admin,5.485,7.035,Imo,908109.0
848,Zhuanghe,China,CHN,,39.681,122.967,Liaoning,905852.0
849,Bobo-Dioulasso,Burkina Faso,BFA,admin,11.1833,-4.2833,Hauts-Bassins,903887.0
850,Ad Dammām,Saudi Arabia,SAU,admin,26.4333,50.1,Ash Sharqīyah,903312.0
851,Quzhou,China,CHN,,28.9702,118.8593,Zhejiang,902767.0
852,Donetsk,Ukraine,UKR,admin,48.0028,37.8053,Donetska Oblast,901645.0
853,Ashmūn,Egypt,EGY,,30.2941,31.0342,Al Minūfīyah,901191.0
854,Bunia,Congo (Kinshasa),COD,admin,1.5667,30.25,Ituri,900666.0
855,Jiaozhou,China,CHN,,36.2647,120.0334,Shandong,900500.0
856,Campo Grande,Brazil,BRA,admin,-20.4839,-54.615,Mato Grosso do Sul,897938.0
857,Wuchang,China,CHN,minor,44.924,127.158,Heilongjiang,897705.0
858,São Gonçalo,Brazil,BRA,,-22.8269,-43.0539,Rio de Janeiro,896744.0
859,Bucaramanga,Colombia,COL,admin,7.1333,-73.0,Santander,893040.0
860,Mérida,Mexico,MEX,admin,20.97,-89.62,Yucatán,892363.0
861,Yangchun,China,CHN,,22.1704,111.7916,Guangdong,891800.0
862,Osmangazi,Turkey,TUR,minor,40.1983,29.06,Bursa,891250.0
863,Esenyurt,Turkey,TUR,,41.0342,28.68,İstanbul,891120.0
864,Morādābād,India,IND,,28.8319,78.7764,Uttar Pradesh,889810.0
865,Bangui,Central African Republic,CAF,primary,4.3733,18.5628,Bangui,889231.0
866,Abeokuta,Nigeria,NGA,admin,7.1608,3.3483,Ogun,888924.0
867,Cancún,Mexico,MEX,minor,21.1606,-86.8475,Quintana Roo,888797.0
868,Antipolo,Philippines,PHL,admin,14.5842,121.1763,Rizal,887399.0
869,Dengtalu,China,CHN,minor,36.1386,114.1066,Henan,887000.0
870,Taguig City,Philippines,PHL,admin,14.52,121.05,Taguig,886722.0
871,Tabūk,Saudi Arabia,SAU,admin,28.3972,36.5789,Tabūk,886036.0
872,Zhoushan,China,CHN,minor,29.9856,122.2074,Zhejiang,882932.0
873,Tucson,United States,USA,,32.1541,-110.8787,Arizona,878320.0
874,As Sulaymānīyah,Iraq,IRQ,admin,35.5572,45.4356,As Sulaymānīyah,878146.0
875,Chihuahua,Mexico,MEX,admin,28.6369,-106.0769,Chihuahua,878062.0
876,Klang,Malaysia,MYS,,3.0333,101.45,Selangor,878000.0
877,Tiruppūr,India,IND,,11.1085,77.3411,Tamil Nādu,877778.0
878,Gurgaon,India,IND,,28.456,77.029,Haryāna,876824.0
879,Ar Ramādī,Iraq,IRQ,admin,33.4258,43.2992,Al Anbār,874543.0
880,Hai’an,China,CHN,minor,32.535,120.563,Jiangsu,874334.0
881,Laiyang,China,CHN,,36.9758,120.7136,Shandong,874127.0
882,Barinas,Venezuela,VEN,admin,8.6333,-70.2,Barinas,873962.0
883,Jalandhar,India,IND,,31.2569,75.4432,Punjab,873725.0
884,Marseille,France,FRA,admin,43.2964,5.37,Provence-Alpes-Côte d’Azur,873076.0
885,Kaifeng Chengguanzhen,China,CHN,minor,34.8519,114.3481,Henan,872000.0
886,Eskişehir,Turkey,TUR,admin,39.7767,30.5206,Eskişehir,871187.0
887,Gaomi,China,CHN,,36.3833,119.75,Shandong,868715.0
888,Lhasa,China,CHN,admin,29.6534,91.1719,Tibet,867891.0
889,Ipoh,Malaysia,MYS,admin,4.5972,101.075,Perak,866772.0
890,El Paso,United States,USA,,31.8476,-106.43,Texas,865270.0
891,Saltillo,Mexico,MEX,admin,25.4231,-100.9919,Coahuila,864431.0
892,Dushanbe,Tajikistan,TJK,primary,38.5367,68.78,Dushanbe,863400.0
893,Ikeja,Nigeria,NGA,admin,6.6,3.35,Lagos,861300.0
894,El Dorado,Mexico,MEX,,24.808,-107.397,Sinaloa,858638.0
895,Cochabamba,Bolivia,BOL,admin,-17.3883,-66.1597,Cochabamba,856198.0
896,Portsmouth,United Kingdom,GBR,,50.8058,-1.0872,Portsmouth,855679.0
897,Tyumen,Russia,RUS,admin,57.15,65.5333,Tyumenskaya Oblast’,855600.0
898,Southampton,United Kingdom,GBR,,50.9025,-1.4042,Southampton,855569.0
899,Hermosillo,Mexico,MEX,admin,29.0989,-110.9542,Sonora,855563.0
900,Wuxi,China,CHN,minor,26.58,111.841,Hunan,853197.0
901,Leping,China,CHN,minor,28.978,117.152,Jiangxi,852800.0
902,Cheongju,"Korea, South",KOR,admin,36.6333,127.4833,Chungbuk,852018.0
903,Shache,China,CHN,,38.4261,77.25,Xinjiang,851374.0
904,Sale,Morocco,MAR,,34.0333,-6.8,Rabat-Salé-Kénitra,850403.0
905,Hailun,China,CHN,minor,47.4667,126.9667,Heilongjiang,850000.0
906,Macheng,China,CHN,,31.173,115.008,Hubei,849090.0
907,Akure,Nigeria,NGA,admin,7.25,5.195,Ondo,847903.0
908,Ilorin,Nigeria,NGA,admin,8.5,4.55,Kwara,847582.0
909,Erbil,Iraq,IRQ,admin,36.1912,44.0092,Arbīl,846000.0
910,Kathmandu,Nepal,NPL,primary,27.71,85.32,,845767.0
911,Saratov,Russia,RUS,admin,51.5333,46.0167,Saratovskaya Oblast’,845300.0
912,Iguaçu,Brazil,BRA,,-22.74,-43.47,Rio de Janeiro,844583.0
913,Zijinglu,China,CHN,minor,34.7667,112.9667,Henan,843900.0
914,Turin,Italy,ITA,admin,45.0792,7.6761,Piedmont,841600.0
915,Yuci,China,CHN,,37.6823,112.7281,Shanxi,840000.0
916,Dehui,China,CHN,,44.535,125.703,Jilin,839786.0
917,Pietermaritzburg,South Africa,ZAF,admin,-29.6167,30.3833,KwaZulu-Natal,839327.0
918,Durban,South Africa,ZAF,,-29.8833,31.05,KwaZulu-Natal,838634.0
919,Bhubaneshwar,India,IND,admin,20.2644,85.8281,Odisha,837737.0
920,Denpasar,Indonesia,IDN,admin,-8.65,115.2167,Bali,834881.0
921,Tongchuan,China,CHN,minor,34.897,108.945,Shaanxi,834437.0
922,João Pessoa,Brazil,BRA,admin,-7.12,-34.88,Paraíba,833932.0
923,Samarinda,Indonesia,IDN,admin,-0.5,117.1378,Kalimantan Timur,831460.0
924,Chengxiang,China,CHN,minor,31.564,121.174,Jiangsu,831113.0
925,Rongjiawan,China,CHN,minor,29.1409,113.1087,Hunan,826000.0
926,Weichanglu,China,CHN,minor,37.1792,119.9333,Shandong,824708.0
927,Sakai,Japan,JPN,,34.5733,135.4831,Ōsaka,824408.0
928,Renqiu,China,CHN,minor,38.686,116.084,Hebei,822455.0
929,Omaha,United States,USA,,41.2627,-96.0529,Nebraska,821345.0
930,Xindi,China,CHN,,29.827,113.476,Hubei,819446.0
931,Wu’an,China,CHN,,36.697,114.204,Hebei,819000.0
932,Qingping,China,CHN,minor,34.539,113.391,Henan,817000.0
933,Gaoyou,China,CHN,minor,32.7847,119.4432,Jiangsu,811800.0
934,São Bernardo do Campo,Brazil,BRA,,-23.7,-46.55,São Paulo,810729.0
935,Yiyang,China,CHN,minor,26.4221,112.3999,Hunan,810447.0
936,Hejian,China,CHN,minor,38.4466,116.0995,Hebei,810306.0
937,Puxi,China,CHN,minor,35.2125,114.735,Henan,809535.0
938,Bhayandar,India,IND,,19.29,72.85,Mahārāshtra,809378.0
939,Androtsy,Madagascar,MDG,,-24.1,46.3,Toliara,809313.0
940,Culiacán,Mexico,MEX,admin,24.8069,-107.3939,Sinaloa,808416.0
941,Cúcuta,Colombia,COL,admin,7.8942,-72.5039,Norte de Santander,806378.0
942,Danyang,China,CHN,,32.0,119.586,Jiangsu,806300.0
943,Dongyang,China,CHN,minor,29.2667,120.2167,Zhejiang,804398.0
944,Kraków,Poland,POL,admin,50.0614,19.9372,Małopolskie,804237.0
945,Pasig City,Philippines,PHL,admin,14.5605,121.0765,Pasig,803159.0
946,Thessaloníki,Greece,GRC,admin,40.6403,22.9347,Kentrikí Makedonía,802572.0
947,Querétaro,Mexico,MEX,admin,20.5875,-100.3928,Querétaro,801940.0
948,Palermo,Colombia,COL,minor,2.8917,-75.4375,Huila,800000.0
949,Xigazê,China,CHN,minor,29.25,88.8833,Tibet,798153.0
950,Qamdo,China,CHN,minor,31.143,97.17,Tibet,798067.0
951,McAllen,United States,USA,,26.2252,-98.2467,Texas,797341.0
952,Libreville,Gabon,GAB,primary,0.3903,9.4542,Estuaire,797003.0
953,Seyhan,Turkey,TUR,minor,36.9831,35.3328,Adana,795012.0
954,San Pedro Sula,Honduras,HND,admin,15.5,-88.0333,Cortés,793835.0
955,Niigata,Japan,JPN,admin,37.9161,139.0364,Niigata,790646.0
956,Hempstead,United States,USA,,40.6629,-73.6089,New York,789763.0
957,Leeds,United Kingdom,GBR,,53.7975,-1.5436,Leeds,789194.0
958,Hamamatsu,Japan,JPN,,34.7108,137.7275,Shizuoka,788211.0
959,Pointe-Noire,Congo (Brazzaville),COG,admin,-4.7975,11.8503,Pointe-Noire,787799.0
960,Xiangxiang,China,CHN,,27.7186,112.5502,Hunan,787216.0
961,Birmingham,United States,USA,,33.5279,-86.7971,Alabama,782111.0
962,Chaohucun,China,CHN,,31.6244,117.8902,Anhui,782000.0
963,Bucheon,"Korea, South",KOR,minor,37.5,126.7833,Gyeonggi,781119.0
964,Lubango,Angola,AGO,admin,-14.9167,13.5,Huíla,776249.0
965,Homs,Syria,SYR,admin,34.7308,36.7094,Ḩimş,775404.0
966,Bilbao,Spain,ESP,minor,43.2569,-2.9236,Basque Country,775000.0
967,Zouping,China,CHN,,36.863,117.743,Shandong,774517.0
968,Frankfurt,Germany,DEU,minor,50.1106,8.6822,Hesse,773068.0
969,San Luis Potosí,Mexico,MEX,admin,22.1511,-100.9761,San Luis Potosí,772828.0
970,Dali,China,CHN,,25.6065,100.2676,Yunnan,771128.0
971,Fuyang,China,CHN,minor,30.0553,119.95,Zhejiang,771000.0
972,Khŭjand,Tajikistan,TJK,admin,40.2833,69.6333,Sughd,770000.0
973,Korla,China,CHN,minor,41.7259,86.1746,Xinjiang,770000.0
974,Albuquerque,United States,USA,,35.1054,-106.6465,New Mexico,769986.0
975,Hamhŭng,"Korea, North",PRK,admin,39.9167,127.5333,Hamnam,768551.0
976,Erzurum,Turkey,TUR,admin,39.9086,41.2769,Erzurum,767848.0
977,Zagreb,Croatia,HRV,primary,45.8131,15.9775,"Zagreb, Grad",767131.0
978,Al ‘Ayn,United Arab Emirates,ARE,,24.2075,55.7447,Abū Z̧aby,766936.0
979,Songzi,China,CHN,,30.174,111.757,Hubei,765911.0
980,Patiāla,India,IND,,30.34,76.38,Punjab,763280.0
981,Laixi,China,CHN,,36.8667,120.5333,Shandong,762900.0
982,Zhongba,China,CHN,minor,31.771,104.755,Sichuan,762140.0
983,Bahawalpur,Pakistan,PAK,minor,29.3956,71.6836,Punjab,762111.0
984,Qingnian,China,CHN,minor,36.8494,115.7061,Shandong,760781.0
985,Kaduna,Nigeria,NGA,admin,10.5167,7.4333,Kaduna,760084.0
986,Winnipeg,Canada,CAN,admin,49.8844,-97.1464,Manitoba,758515.0
987,Trabzon,Turkey,TUR,admin,41.005,39.7225,Trabzon,758237.0
988,Guangshui,China,CHN,,31.617,113.826,Hubei,755910.0
989,Baardheere,Somalia,SOM,,2.3333,42.2833,Gedo,755500.0
990,Shīshgarh,India,IND,,28.72,79.32,Uttar Pradesh,753815.0
991,Nerima,Japan,JPN,,35.7356,139.6517,Tōkyō,752608.0
992,Sizhan,China,CHN,,38.9846,106.3828,Ningxia,751389.0
993,Ciudad Guayana,Venezuela,VEN,minor,8.3667,-62.65,Bolívar,751331.0
994,Natal,Brazil,BRA,admin,-5.7833,-35.2,Rio Grande do Norte,751300.0
995,Lichuan,China,CHN,,30.291,108.9364,Hubei,750670.0
996,Licheng,China,CHN,minor,31.4306,119.4788,Jiangsu,749522.0
997,Santo André,Brazil,BRA,,-23.6572,-46.5333,São Paulo,748919.0
998,Ōta-ku,Japan,JPN,,35.5614,139.7161,Tōkyō,748081.0
999,Gaalkacyo,Somalia,SOM,admin,6.7697,47.4308,Mudug,745000.0
1000,Thiruvananthapuram,India,IND,admin,8.5241,76.9366,Kerala,743691.0
1001,Osasco,Brazil,BRA,,-23.5328,-46.7919,São Paulo,743432.0
1002,Nampula,Mozambique,MOZ,admin,-15.1167,39.2667,Nampula,743000.0
1003,Pretoria,South Africa,ZAF,primary,-25.7461,28.1881,Gauteng,741651.0
1004,Kyaukse,Burma,MMR,,21.6131,96.1303,Mandalay,741071.0
1005,Chengguan,China,CHN,minor,35.4623,113.8054,Henan,740435.0
1006,Nehe,China,CHN,minor,48.4833,124.8833,Heilongjiang,740000.0
1007,Cabinda,Angola,AGO,admin,-5.56,12.19,Cabinda,739182.0
1008,Kumamoto,Japan,JPN,admin,32.8031,130.7078,Kumamoto,738385.0
1009,Kermān,Iran,IRN,admin,30.2911,57.0678,Kermān,738374.0
1010,Zunhua,China,CHN,minor,40.189,117.966,Hebei,737011.0
1011,Orūmīyeh,Iran,IRN,admin,37.5439,45.0647,Āz̄arbāyjān-e Gharbī,736224.0
1012,Wugang,China,CHN,,26.7266,110.6319,Hunan,734870.0
1013,Bağcılar,Turkey,TUR,,41.0344,28.8564,İstanbul,734369.0
1014,Quebec City,Canada,CAN,admin,46.8139,-71.2081,Quebec,733156.0
1015,Shuangqiao,China,CHN,minor,35.067,112.602,Henan,733000.0
1016,Umraniye,Turkey,TUR,,41.0311,29.1081,İstanbul,732379.0
1017,Yanggok,"Korea, South",KOR,,37.6333,127.2167,Gyeonggi,732376.0
1018,Tshikapa,Congo (Kinshasa),COD,admin,-6.4167,20.8,Kasaï,732000.0
1019,Tulsa,United States,USA,,36.1283,-95.9042,Oklahoma,731743.0
1020,Osogbo,Nigeria,NGA,admin,7.7667,4.5667,Osun,731000.0
1021,Comodoro Rivadavia,Argentina,ARG,minor,-45.8647,-67.4808,Chubut,730266.0
1022,Nottingham,United Kingdom,GBR,,52.9561,-1.1512,Nottingham,729977.0
1023,Hamilton,Canada,CAN,,43.2567,-79.8692,Ontario,729560.0
1024,Langzhong,China,CHN,minor,31.558,106.005,Sichuan,728935.0
1025,Cagayan de Oro,Philippines,PHL,admin,8.48,124.65,Cagayan de Oro,728402.0
1026,Qian’an,China,CHN,,39.999,118.701,Hebei,728160.0
1027,Fresno,United States,USA,,36.783,-119.7939,California,725276.0
1028,An Najaf,Iraq,IRQ,admin,32.0,44.33,An Najaf,724700.0
1029,Cencheng,China,CHN,minor,22.9167,111.0,Guangxi,724364.0
1030,Sorocaba,Brazil,BRA,,-23.5017,-47.4581,São Paulo,723574.0
1031,Guli,China,CHN,,28.9,120.0333,Zhejiang,723490.0
1032,Sagamihara,Japan,JPN,,35.5667,139.3667,Kanagawa,722973.0
1033,Pīshbar,Iran,IRN,,33.3886,59.9789,Khorāsān-e Jonūbī,720207.0
1034,Okayama,Japan,JPN,admin,34.65,133.9167,Okayama,720043.0
1035,Anlu,China,CHN,minor,31.2667,113.6667,Hubei,720000.0
1036,Concepción,Chile,CHL,admin,-36.8282,-73.0514,Biobío,719944.0
1037,Mississauga,Canada,CAN,,43.6,-79.65,Ontario,717961.0
1038,Changsha,China,CHN,minor,22.3773,112.6982,Guangdong,717700.0
1039,Songyang,China,CHN,minor,34.4553,113.0253,Henan,717400.0
1040,Lviv,Ukraine,UKR,admin,49.8425,24.0322,Lvivska Oblast,717273.0
1041,Shihezi,China,CHN,minor,44.3054,86.0804,Xinjiang,717000.0
1042,Vilnius,Lithuania,LTU,primary,54.6872,25.28,Vilniaus Miestas,716856.0
1043,Marka,Somalia,SOM,admin,1.7133,44.7656,Shabeellaha Hoose,716361.0
1044,Enugu,Nigeria,NGA,admin,6.4528,7.5111,Enugu,715774.0
1045,Valenzuela,Philippines,PHL,admin,14.7,120.98,Valenzuela,714978.0
1046,Yatou,China,CHN,minor,37.1653,122.4867,Shandong,714211.0
1047,Uberlândia,Brazil,BRA,,-18.9231,-48.2886,Minas Gerais,713232.0
1048,Xichang,China,CHN,minor,27.8944,102.2644,Sichuan,712434.0
1049,Zaporizhzhia,Ukraine,UKR,admin,47.85,35.1175,Zaporizka Oblast,710052.0
1050,Bhiwandi,India,IND,,19.2967,73.0631,Mahārāshtra,709665.0
1051,George Town,Malaysia,MYS,admin,5.4144,100.3292,Pulau Pinang,708127.0
1052,Bristol,United Kingdom,GBR,,51.4536,-2.5975,"Bristol, City of",707412.0
1053,Charleston,United States,USA,,32.8168,-79.9687,South Carolina,706884.0
1054,Sahāranpur,India,IND,,29.964,77.546,Uttar Pradesh,705478.0
1055,Dashiqiao,China,CHN,minor,40.6167,122.5167,Liaoning,704891.0
1056,Yenimahalle,Turkey,TUR,minor,39.9719,32.8119,Ankara,704652.0
1057,Warangal,India,IND,,17.9689,79.5941,Telangāna,704570.0
1058,Nampo,"Korea, North",PRK,,38.7333,125.4,Namp’o,703317.0
1059,Dasmariñas,Philippines,PHL,,14.33,120.94,Cavite,703141.0
1060,Jaboatão,Brazil,BRA,,-8.1803,-35.0014,Pernambuco,702621.0
1061,Chisinau,Moldova,MDA,primary,47.0228,28.8353,Chişinău,702300.0
1062,Shiliguri,India,IND,,26.71,88.43,West Bengal,701489.0
1063,Boosaaso,Somalia,SOM,admin,11.2886,49.1819,Bari,700906.0
1064,Port Moresby,Papua New Guinea,PNG,primary,-9.4789,147.1494,National Capital,700000.0
1065,Latakia,Syria,SYR,admin,35.5167,35.7833,Al Lādhiqīyah,700000.0
1066,Rochester,United States,USA,,43.168,-77.6162,New York,699921.0
1067,Ribeirão Prêto,Brazil,BRA,,-21.1783,-47.8067,São Paulo,698259.0
1068,Edogawa,Japan,JPN,,35.7,139.8833,Chiba,697932.0
1069,São José dos Campos,Brazil,BRA,,-23.1789,-45.8869,São Paulo,697428.0
1070,General Santos,Philippines,PHL,admin,6.12,125.17,General Santos,697315.0
1071,Ḩamāh,Syria,SYR,admin,35.1333,36.75,Ḩamāh,696863.0
1072,Qianxi,China,CHN,,27.0087,106.0323,Guizhou,695947.0
1073,Bauchi,Nigeria,NGA,admin,10.3158,9.8442,Bauchi,693700.0
1074,Pendik,Turkey,TUR,minor,40.8747,29.235,İstanbul,693599.0
1075,Salem,India,IND,,11.65,78.15,Tamil Nādu,693236.0
1076,Shishi,China,CHN,minor,24.7167,118.7,Fujian,693000.0
1077,Sinnūris,Egypt,EGY,,29.4072,30.8667,Al Fayyūm,692701.0
1078,Cocody,Côte d’Ivoire,CIV,,5.35,-3.9667,Abidjan,692583.0
1079,Miluo Chengguanzhen,China,CHN,minor,28.761,113.16,Hunan,692080.0
1080,Lokoja,Nigeria,NGA,admin,7.8019,6.7442,Kogi,692050.0
1081,Guadalupe,Mexico,MEX,minor,25.6775,-100.2597,Nuevo León,691931.0
1082,Gaizhou,China,CHN,minor,40.4,122.35,Liaoning,691595.0
1083,Karbalā’,Iraq,IRQ,admin,32.6167,44.0333,Karbalā’,690100.0
1084,Borvāyeh-ye Al Bū ‘Azīz,Iran,IRN,,31.6283,48.6147,Khūzestān,690000.0
1085,City of Parañaque,Philippines,PHL,admin,14.5008,120.9915,Parañaque,689992.0
1086,Leling,China,CHN,minor,37.73,117.232,Shandong,689867.0
1087,Mamak,Turkey,TUR,minor,39.9422,32.9231,Ankara,687535.0
1088,Jianshe,China,CHN,minor,34.2137,113.7629,Henan,687130.0
1089,Tolyatti,Russia,RUS,,53.5089,49.4222,Samarskaya Oblast’,685619.0
1090,Shizuoka,Japan,JPN,admin,34.9756,138.3828,Shizuoka,685589.0
1091,Jingcheng,China,CHN,minor,32.009,120.263,Jiangsu,684360.0
1092,Agege,Nigeria,NGA,minor,6.6219,3.3258,Lagos,683600.0
1093,Mar del Plata,Argentina,ARG,minor,-38.0,-57.55,Buenos Aires,682605.0
1094,Zaragoza,Spain,ESP,admin,41.65,-0.8833,Aragon,682513.0
1095,Adachi,Japan,JPN,,35.7833,139.8,Tōkyō,682326.0
1096,Xinmin,China,CHN,,41.997,122.823,Liaoning,680000.0
1097,Rasht,Iran,IRN,admin,37.2744,49.5889,Gīlān,679995.0
1098,Shanhu,China,CHN,minor,29.6,120.8167,Zhejiang,679762.0
1099,Zhongshu,China,CHN,,27.7919,106.4013,Guizhou,679624.0
1100,Cotonou,Benin,BEN,primary,6.3667,2.4333,Littoral,679012.0
1101,Tasikmalaya,Indonesia,IDN,,-7.3161,108.1975,Jawa Barat,678027.0
1102,Kochi,India,IND,,9.9312,76.2673,Kerala,677381.0
1103,Soledad,Colombia,COL,minor,10.9167,-74.75,Atlántico,676014.0
1104,Dhūlia,India,IND,,20.8997,74.7697,Mahārāshtra,675000.0
1105,Acapulco de Juárez,Mexico,MEX,minor,16.8636,-99.8825,Guerrero,673478.0
1106,Gorakhpur,India,IND,,26.7637,83.4039,Uttar Pradesh,673446.0
1107,Bahār,Iran,IRN,minor,34.9028,48.4425,Hamadān,673405.0
1108,Kumul,China,CHN,minor,42.8193,93.5151,Xinjiang,673383.0
1109,Wrocław,Poland,POL,admin,51.11,17.0325,Dolnośląskie,672929.0
1110,Murcia,Spain,ESP,admin,37.9861,-1.1303,Murcia,672773.0
1111,Pinghu,China,CHN,,30.7005,121.0104,Zhejiang,671834.0
1112,Guankou,China,CHN,,30.988,103.647,Sichuan,671200.0
1113,Łódź,Poland,POL,admin,51.7769,19.4547,Łódzkie,670642.0
1114,Guntūr,India,IND,,16.3008,80.4428,Andhra Pradesh,670073.0
1115,Bhāngar,India,IND,,22.58,88.42,West Bengal,670000.0
1116,Dayton,United States,USA,,39.7805,-84.2003,Ohio,668825.0
1117,Ch’ŏngjin,"Korea, North",PRK,admin,41.7833,129.7667,Hambuk,667929.0
1118,Qionghu,China,CHN,minor,28.945,112.598,Hunan,667104.0
1119,Zhaodong,China,CHN,minor,46.051,125.962,Heilongjiang,666532.0
1120,Puyang Chengguanzhen,China,CHN,minor,35.7004,114.98,Henan,666322.0
1121,Bulawayo,Zimbabwe,ZWE,admin,-20.17,28.58,Bulawayo,665940.0
1122,Huambo,Angola,AGO,admin,-12.7767,15.7347,Huambo,665564.0
1123,Aracaju,Brazil,BRA,admin,-10.9167,-37.05,Sergipe,664908.0
1124,Bacoor,Philippines,PHL,,14.4624,120.9645,Cavite,664625.0
1125,Wenchang,China,CHN,minor,31.054,116.9507,Anhui,664455.0
1126,Rotterdam,Netherlands,NLD,minor,51.92,4.48,Zuid-Holland,664311.0
1127,Tlaquepaque,Mexico,MEX,minor,20.6167,-103.3167,Jalisco,664193.0
1128,Villavicencio,Colombia,COL,admin,4.15,-73.6333,Meta,664148.0
1129,Shulan,China,CHN,minor,44.4059,126.9655,Jilin,663403.0
1130,Makhachkala,Russia,RUS,admin,42.9667,47.4833,Dagestan,662600.0
1131,Banjarmasin,Indonesia,IDN,admin,-3.32,114.5925,Kalimantan Selatan,662230.0
1132,Narela,India,IND,,28.8527,77.0929,Delhi,661994.0
1133,Catia La Mar,Venezuela,VEN,minor,10.6,-67.0333,La Guaira,661897.0
1134,Al Hufūf,Saudi Arabia,SAU,,25.3833,49.5833,Ash Sharqīyah,660788.0
1135,Jalingo,Nigeria,NGA,admin,8.9,11.3667,Taraba,660213.0
1136,Sargodha,Pakistan,PAK,minor,32.0836,72.6711,Punjab,659862.0
1137,Karaikandi,India,IND,,24.8309,92.6143,Assam,659260.0
1138,Bouaké,Côte d’Ivoire,CIV,admin,7.6833,-5.0167,Vallée du Bandama,659233.0
1139,Lingbao Chengguanzhen,China,CHN,minor,34.5176,110.8942,Henan,656571.0
1140,Brampton,Canada,CAN,,43.6833,-79.7667,Ontario,656480.0
1141,Abomey-Calavi,Benin,BEN,,6.4486,2.3556,Atlantique,655965.0
1142,Durango,Mexico,MEX,admin,24.025,-104.6675,Durango,654876.0
1143,Cape Coral,United States,USA,,26.6443,-81.9957,Florida,654405.0
1144,Tondo,Philippines,PHL,,14.617,120.967,Manila,654220.0
1145,Dayrūţ,Egypt,EGY,,27.5667,30.8167,Asyūţ,653847.0
1146,Tlalnepantla,Mexico,MEX,minor,19.5367,-99.1947,México,653410.0
1147,Ansan,"Korea, South",KOR,,37.3167,126.8333,Gyeonggi,652800.0
1148,Xiping,China,CHN,minor,25.6005,103.8166,Yunnan,652604.0
1149,Huế,Vietnam,VNM,admin,16.4667,107.5792,Thừa Thiên-Huế,652572.0
1150,Sanhe,China,CHN,minor,40.0167,117.0833,Hebei,652042.0
1151,San Jose del Monte,Philippines,PHL,,14.8139,121.0453,Bulacan,651813.0
1152,Ch’ŏnan,"Korea, South",KOR,,36.81,127.1475,Chungnam,651661.0
1153,Cuiabá,Brazil,BRA,admin,-15.5958,-56.0969,Mato Grosso,650912.0
1154,Jieshou,China,CHN,,33.257,115.3746,Anhui,650870.0
1155,Ērer Sātā,Ethiopia,ETH,,9.5667,41.3833,Sumalē,649000.0
1156,Selçuklu,Turkey,TUR,minor,37.8814,32.4922,Konya,648850.0
1157,Suohe,China,CHN,minor,34.7833,113.35,Henan,648700.0
1158,Guixi,China,CHN,minor,28.2925,117.2454,Jiangxi,647240.0
1159,Izhevsk,Russia,RUS,admin,56.8333,53.1833,Udmurtiya,646277.0
1160,Honchō,Japan,JPN,,35.6946,139.9826,Chiba,644668.0
1161,Wuxue,China,CHN,minor,29.844,115.561,Hubei,644247.0
1162,Jaboatão dos Guararapes,Brazil,BRA,minor,-8.1122,-35.0156,Pernambuco,643759.0
1163,Yıldırım,Turkey,TUR,minor,40.11,29.0821,Bursa,643681.0
1164,Bhāvnagar,India,IND,,21.76,72.15,Gujarāt,643365.0
1165,Jinghong,China,CHN,minor,22.009,100.797,Yunnan,642737.0
1166,Tengyue,China,CHN,minor,25.0167,98.4833,Yunnan,642481.0
1167,Mission Viejo,United States,USA,,33.6096,-117.6551,California,642211.0
1168,Ruiming,China,CHN,,25.886,116.027,Jiangxi,640600.0
1169,Qufu,China,CHN,,35.5819,116.9862,Shandong,640498.0
1170,Sha Tin,Hong Kong,HKG,,22.3802,114.1898,,640000.0
1171,Petaling Jaya,Malaysia,MYS,,3.0972,101.6444,Selangor,638516.0
1172,Colorado Springs,United States,USA,,38.8674,-104.7605,Colorado,638194.0
1173,Noida,India,IND,,28.57,77.32,Uttar Pradesh,637272.0
1174,Xinshi,China,CHN,minor,31.1333,113.1167,Hubei,636776.0
1175,Baton Rouge,United States,USA,admin,30.442,-91.1311,Louisiana,635671.0
1176,Manama,Bahrain,BHR,primary,26.225,50.5775,Al ‘Āşimah,635000.0
1177,Las Palmas,Spain,ESP,admin,28.1258,-15.4353,Canary Islands,635000.0
1178,Chak Forty-one,Pakistan,PAK,,31.0167,73.85,Punjab,634236.0
1179,Jin’e,China,CHN,minor,29.3394,105.2875,Sichuan,633210.0
1180,Benghazi,Libya,LBY,admin,32.1167,20.0667,Banghāzī,631555.0
1181,Chuxiong,China,CHN,,25.033,101.5459,Yunnan,631530.0
1182,Barnaul,Russia,RUS,admin,53.3486,83.7764,Altayskiy Kray,631124.0
1183,Palermo,Italy,ITA,admin,38.1111,13.3517,Sicilia,630167.0
1184,Makati City,Philippines,PHL,admin,14.5567,121.0214,Makati,629616.0
1185,Düsseldorf,Germany,DEU,admin,51.2333,6.7833,North Rhine-Westphalia,629047.0
1186,Allentown,United States,USA,,40.5961,-75.4756,Pennsylvania,627863.0
1187,Xinxing,China,CHN,minor,39.8667,124.15,Liaoning,627475.0
1188,Ţūkh,Egypt,EGY,,30.3539,31.2007,Al Qalyūbīyah,627290.0
1189,Glasgow,United Kingdom,GBR,,55.8611,-4.25,Glasgow City,626410.0
1190,Namangan,Uzbekistan,UZB,admin,41.0011,71.6683,Namangan,626120.0
1191,Bazal’tove,Ukraine,UKR,,50.6765,26.16,Rivnenska Oblast,625543.0
1192,Al Qaţīf,Saudi Arabia,SAU,,26.556,49.996,Ash Sharqīyah,625092.0
1193,Bhilai,India,IND,,21.21,81.38,Chhattīsgarh,624700.0
1194,Ulyanovsk,Russia,RUS,admin,54.3167,48.3667,Ul’yanovskaya Oblast’,624518.0
1195,Mangalore,India,IND,,12.8681,74.8425,Karnātaka,623841.0
1196,Kaihua,China,CHN,minor,23.387,104.233,Yunnan,623772.0
1197,Irkutsk,Russia,RUS,admin,52.2833,104.2833,Irkutskaya Oblast’,623736.0
1198,Meilan,China,CHN,,19.999,110.403,Hainan,623667.0
1199,Bazhou,China,CHN,minor,39.1333,116.3833,Hebei,622975.0
1200,Ogden,United States,USA,,41.2279,-111.9682,Utah,622918.0
1201,Turpan,China,CHN,minor,42.9512,89.1895,Xinjiang,622903.0
1202,Jos,Nigeria,NGA,admin,9.9167,8.8903,Plateau,622802.0
1203,Al Manşūrah,Egypt,EGY,admin,31.05,31.3833,Ad Daqahlīyah,621953.0
1204,Contagem,Brazil,BRA,,-19.9319,-44.0539,Minas Gerais,621865.0
1205,Jambi,Indonesia,IDN,admin,-1.59,103.61,Jambi,619553.0
1206,Ḩalwān,Egypt,EGY,,29.8453,31.3333,Al Qāhirah,619293.0
1207,Provo,United States,USA,,40.2457,-111.6457,Utah,619218.0
1208,Tân An,Vietnam,VNM,,10.905,106.6994,Hồ Chí Minh,618984.0
1209,Port-Bouët,Côte d’Ivoire,CIV,,5.2667,-3.9,Abidjan,618795.0
1210,Pontianak,Indonesia,IDN,admin,-0.0206,109.3414,Kalimantan Barat,618388.0
1211,Meihekou,China,CHN,minor,42.5407,125.7107,Jilin,618251.0
1212,Jurong,China,CHN,,31.946,119.164,Jiangsu,617706.0
1213,Bihtā,India,IND,,25.5619,84.87,Bihār,617427.0
1214,Yuhuan,China,CHN,,28.1277,121.2288,Zhejiang,616346.0
1215,Joinvile,Brazil,BRA,,-26.3204,-48.8437,Santa Catarina,616323.0
1216,Feira de Santana,Brazil,BRA,minor,-12.25,-38.95,Bahia,616279.0
1217,Khabarovsk,Russia,RUS,admin,48.4833,135.0833,Khabarovskiy Kray,616242.0
1218,Leipzig,Germany,DEU,minor,51.34,12.375,Saxony,616093.0
1219,Xinji,China,CHN,minor,37.943,115.218,Hebei,615919.0
1220,Knoxville,United States,USA,,35.9692,-83.9496,Tennessee,615829.0
1221,Ta‘izz,Yemen,YEM,admin,13.5789,44.0219,Ta‘izz,615467.0
1222,Etimesgut,Turkey,TUR,minor,39.9458,32.6694,Ankara,614891.0
1223,Changping,China,CHN,,40.2248,116.1944,Beijing,614821.0
1224,Tallinn,Estonia,EST,primary,59.4372,24.7453,Tallinn,614561.0
1225,Chimalhuacán,Mexico,MEX,minor,19.4167,-98.9,México,614453.0
1226,Kandahār,Afghanistan,AFG,admin,31.62,65.7158,Kandahār,614254.0
1227,Serang,Indonesia,IDN,admin,-6.12,106.1503,Banten,613356.0
1228,Zhangshu,China,CHN,,28.0546,115.5462,Jiangxi,610424.0
1229,Grand Rapids,United States,USA,,42.9619,-85.6562,Michigan,609023.0
1230,Yukarıkaraman,Turkey,TUR,,36.9167,30.6833,Antalya,608675.0
1231,Gothenburg,Sweden,SWE,admin,57.7075,11.9675,Västra Götaland,607882.0
1232,Kuantan,Malaysia,MYS,admin,3.8167,103.3333,Pahang,607778.0
1233,Gold Coast,Australia,AUS,,-28.0167,153.4,Queensland,607665.0
1234,Kawaguchi,Japan,JPN,,35.8077,139.7241,Saitama,607373.0
1235,Las Piñas City,Philippines,PHL,,14.45,120.98,Las Piñas,606293.0
1236,Cuttack,India,IND,,20.5236,85.7881,Odisha,606007.0
1237,San Miguel de Tucumán,Argentina,ARG,admin,-26.8167,-65.2167,Tucumán,605767.0
1238,Ar Rayyān,Qatar,QAT,admin,25.25,51.4,Ar Rayyān,605712.0
1239,Salīmpur,India,IND,,26.3,83.9167,Uttar Pradesh,604483.0
1240,Malanje,Angola,AGO,admin,-9.5333,16.35,Malanje,604215.0
1241,Columbia,United States,USA,admin,34.0378,-80.9036,South Carolina,604065.0
1242,Kryvyi Rih,Ukraine,UKR,minor,47.91,33.39,Dnipropetrovska Oblast,603904.0
1243,Djibouti,Djibouti,DJI,primary,11.5883,43.145,Djibouti,603900.0
1244,Zhuozhou,China,CHN,minor,39.485,115.974,Hebei,603535.0
1245,Tianchang,China,CHN,minor,32.6811,119.0137,Anhui,602840.0
1246,Tunis,Tunisia,TUN,primary,36.8064,10.1817,Tunis,602560.0
1247,Yaroslavl,Russia,RUS,admin,57.6167,39.85,Yaroslavskaya Oblast’,601403.0
1248,Bacolod,Philippines,PHL,admin,10.6765,122.9509,Bacolod,600783.0
1249,Garoua,Cameroon,CMR,admin,9.3,13.4,Nord,600000.0
1250,Bafoussam,Cameroon,CMR,admin,5.4667,10.4167,Ouest,600000.0
1251,Haifa,Israel,ISR,admin,32.8192,34.9992,Haifa,600000.0
1252,Raurkela,India,IND,,22.2492,84.8828,Odisha,600000.0
1253,Tumkūr,India,IND,,13.34,77.1,Karnātaka,599078.0
1254,Balikpapan,Indonesia,IDN,,-1.2768,116.8277,Kalimantan Timur,598043.0
1255,Somolu,Nigeria,NGA,minor,6.5408,3.3872,Lagos,597400.0
1256,Vladivostok,Russia,RUS,admin,43.1333,131.9,Primorskiy Kray,597240.0
1257,Al Ḩillah,Saudi Arabia,SAU,,23.4895,46.7564,Ar Riyāḑ,594605.0
1258,Melikgazi,Turkey,TUR,minor,38.7167,35.5,Kayseri,594344.0
1259,Kagoshima,Japan,JPN,admin,31.6,130.55,Kagoshima,593754.0
1260,Sihui,China,CHN,,23.3265,112.7338,Guangdong,593400.0
1261,Dortmund,Germany,DEU,minor,51.5139,7.4653,North Rhine-Westphalia,593317.0
1262,Irapuato,Mexico,MEX,minor,20.6667,-101.35,Guanajuato,592953.0
1263,Al Maḩallah al Kubrá,Egypt,EGY,,30.9686,31.1636,Al Gharbīyah,592573.0
1264,Sialkot City,Pakistan,PAK,minor,32.4925,74.5311,Punjab,591668.0
1265,Luocheng,China,CHN,minor,30.99,104.25,Sichuan,591115.0
1266,Albany,United States,USA,admin,42.6664,-73.7987,New York,590694.0
1267,Pereira,Colombia,COL,admin,4.8143,-75.6946,Risaralda,590554.0
1268,Gaza,Gaza Strip,XGZ,primary,31.5069,34.456,,590481.0
1269,Uvira,Congo (Kinshasa),COD,,-3.4,29.15,Sud-Kivu,590000.0
1270,Reynosa,Mexico,MEX,minor,26.0922,-98.2778,Tamaulipas,589466.0
1271,Zāhedān,Iran,IRN,admin,29.5025,60.8558,Sīstān va Balūchestān,587730.0
1272,Cimahi,Indonesia,IDN,,-6.8712,107.5548,Jawa Barat,586580.0
1273,Mbale,Uganda,UGA,admin,1.0806,34.175,Mbale,586300.0
1274,Wenlan,China,CHN,minor,23.3961,103.3649,Yunnan,585976.0
1275,Shangzhi,China,CHN,minor,45.2116,127.962,Heilongjiang,585386.0
1276,Essen,Germany,DEU,minor,51.4508,7.0131,North Rhine-Westphalia,584580.0
1277,Itabashi,Japan,JPN,,35.7667,139.6833,Tōkyō,584483.0
1278,Shah Alam,Malaysia,MYS,admin,3.0722,101.5167,Selangor,584340.0
1279,Botou,China,CHN,minor,38.0833,116.5833,Hebei,584308.0
1280,Suginami-ku,Japan,JPN,,35.6994,139.6364,Tōkyō,583609.0
1281,Tenkāsi,India,IND,,8.9564,77.3152,Tamil Nādu,580000.0
1282,Kingston,Jamaica,JAM,primary,17.9714,-76.7931,Kingston,580000.0
1283,Al Mafraq,Jordan,JOR,admin,32.3399,36.2052,Al Mafraq,580000.0
1284,Aţ Ţā’if,Saudi Arabia,SAU,,21.2751,40.4062,Makkah al Mukarramah,579970.0
1285,Port Sudan,Sudan,SDN,admin,19.6167,37.2167,Red Sea,579942.0
1286,Tuxtla,Mexico,MEX,admin,16.7528,-93.1167,Chiapas,578830.0
1287,Dehra Dūn,India,IND,admin,30.345,78.029,Uttarākhand,578420.0
1288,Xiulin,China,CHN,,29.7209,112.4254,Hubei,577022.0
1289,Fu’an,China,CHN,minor,27.1,119.6333,Fujian,577000.0
1290,Mymensingh,Bangladesh,BGD,admin,24.7539,90.4031,Mymensingh,576927.0
1291,Hachiōji,Japan,JPN,,35.6664,139.316,Tōkyō,575721.0
1292,Iloilo,Philippines,PHL,admin,10.72,122.57,Iloilo,574000.0
1293,Puente Alto,Chile,CHL,minor,-33.6167,-70.5667,Región Metropolitana,573935.0
1294,Tomsk,Russia,RUS,admin,56.5,84.9667,Tomskaya Oblast’,572740.0
1295,Rabat,Morocco,MAR,primary,34.0209,-6.8416,Rabat-Salé-Kénitra,572717.0
1296,Sincan,Turkey,TUR,minor,39.9594,32.5767,Ankara,572609.0
1297,Bakersfield,United States,USA,,35.3529,-119.0359,California,571992.0
1298,Kottayam,India,IND,,9.5916,76.5222,Kerala,571856.0
1299,Luofeng,China,CHN,minor,37.359,120.396,Shandong,570898.0
1300,Shibīn al Qanāţir,Egypt,EGY,,30.3133,31.3214,Al Qalyūbīyah,570868.0
1301,Nakuru,Kenya,KEN,admin,-0.3,36.0667,Nakuru,570674.0
1302,Lingyuan,China,CHN,,41.25,119.4,Liaoning,570660.0
1303,Tonalá,Mexico,MEX,minor,20.6167,-103.2333,Jalisco,569913.0
1304,Bremen,Germany,DEU,admin,53.0758,8.8072,Bremen,569396.0
1305,Abū Ḩummuş,Egypt,EGY,,31.1006,30.3128,Al Buḩayrah,569157.0
1306,Irbid,Jordan,JOR,admin,32.55,35.85,Irbid,569068.0
1307,Macau,Macau,MAC,,22.2006,113.5461,,568700.0
1308,Surrey,Canada,CAN,,49.19,-122.8489,British Columbia,568322.0
1309,Ciudad Bolívar,Venezuela,VEN,admin,8.1219,-63.55,Bolívar,567953.0
1310,Durgāpur,India,IND,,23.55,87.32,West Bengal,566937.0
1311,Shenzhou,China,CHN,minor,38.002,115.56,Hebei,566087.0
1312,New Haven,United States,USA,,41.3113,-72.9246,Connecticut,565572.0
1313,Orenburg,Russia,RUS,admin,51.7833,55.1,Orenburgskaya Oblast’,564773.0
1314,Kuiju,China,CHN,minor,36.8667,119.4,Shandong,564501.0
1315,Zhenzhou,China,CHN,minor,32.2723,119.1848,Jiangsu,564021.0
1316,Āsansol,India,IND,,23.68,86.99,West Bengal,563917.0
1317,Bokaro Steel City,India,IND,,23.67,86.15,Jhārkhand,563417.0
1318,Dresden,Germany,DEU,admin,51.05,13.74,Saxony,563311.0
1319,Bello,Colombia,COL,minor,6.3333,-75.5667,Antioquia,561955.0
1320,Kolhāpur,India,IND,,16.6917,74.2333,Mahārāshtra,561489.0
1321,Wencheng,China,CHN,minor,19.617,110.7551,Hainan,560894.0
1322,Lanxi,China,CHN,,29.208,119.458,Zhejiang,560514.0
1323,Dangyang,China,CHN,,30.821,111.789,Hubei,560000.0
1324,Nava Raipur,India,IND,,21.161,81.787,Chhattīsgarh,560000.0
1325,Kemerovo,Russia,RUS,admin,55.3667,86.0667,Kemerovskaya Oblast’,558973.0
1326,Genoa,Italy,ITA,admin,44.4111,8.9328,Liguria,558745.0
1327,Herāt,Afghanistan,AFG,admin,34.3419,62.2031,Herāt,556205.0
1328,Londrina,Brazil,BRA,,-23.31,-51.1628,Paraná,555937.0
1329,Cuautitlán Izcalli,Mexico,MEX,minor,19.65,-99.25,México,555163.0
1330,Uyo,Nigeria,NGA,admin,5.0333,7.9275,Akwa Ibom,554906.0
1331,Hamadān,Iran,IRN,admin,34.8064,48.5161,Hamadān,554406.0
1332,Luanzhou,China,CHN,minor,39.741,118.704,Hebei,554315.0
1333,Chiclayo,Peru,PER,admin,-6.763,-79.8366,Lambayeque,552508.0
1334,Surakarta,Indonesia,IDN,,-7.5667,110.8167,Jawa Tengah,552118.0
1335,Novokuznetsk,Russia,RUS,,53.7667,87.1333,Kemerovskaya Oblast’,552105.0
1336,Ajmer,India,IND,,26.4499,74.6399,Rājasthān,551101.0
1337,Kimhae,"Korea, South",KOR,,35.2342,128.8811,Gyeongnam,550758.0
1338,Nānded,India,IND,,19.15,77.3,Mahārāshtra,550439.0
1339,Wuhai,China,CHN,minor,39.655,106.794,Inner Mongolia,550000.0
1340,Palma,Spain,ESP,admin,39.5667,2.65,Balearic Islands,550000.0
1341,Rustenburg,South Africa,ZAF,,-25.6667,27.2428,North West,549575.0
1342,Amrāvati,India,IND,,20.9258,77.7647,Mahārāshtra,549370.0
1343,Des Moines,United States,USA,admin,41.5725,-93.6105,Iowa,548926.0
1344,Lisbon,Portugal,PRT,primary,38.7253,-9.15,Lisboa,548703.0
1345,Yanji,China,CHN,minor,42.9,129.5,Jilin,548700.0
1346,Huanghua,China,CHN,minor,38.372,117.33,Hebei,548507.0
1347,Al Ḩudaydah,Yemen,YEM,admin,14.8022,42.9511,Al Ḩudaydah,548433.0
1348,Anyang,"Korea, South",KOR,,37.3833,126.9333,Gyeonggi,548372.0
1349,The Hague,Netherlands,NLD,primary,52.08,4.31,Zuid-Holland,548320.0
1350,Andijon,Uzbekistan,UZB,admin,40.7833,72.3333,Andijon,547800.0
1351,Manchester,United Kingdom,GBR,,53.479,-2.2452,Manchester,547627.0
1352,Nellore,India,IND,,14.45,79.99,Andhra Pradesh,547621.0
1353,Poznań,Poland,POL,admin,52.4083,16.9336,Wielkopolskie,546859.0
1354,Samarkand,Uzbekistan,UZB,admin,39.6547,66.9758,Samarqand,546303.0
1355,Xingcheng,China,CHN,,40.6167,120.7333,Liaoning,546176.0
1356,Wancheng,China,CHN,minor,18.8,110.4,Hainan,545992.0
1357,Kaiyuan,China,CHN,,42.546,124.038,Liaoning,545624.0
1358,Hannover,Germany,DEU,admin,52.3667,9.7167,Lower Saxony,545045.0
1359,Sungai Petani,Malaysia,MYS,,5.65,100.5,Kedah,544851.0
1360,Valledupar,Colombia,COL,admin,10.4833,-73.25,Cesar,544134.0
1361,Fengcheng,China,CHN,,40.45,124.0667,Liaoning,543933.0
1362,Muntinlupa City,Philippines,PHL,admin,14.38,121.05,Muntinlupa,543445.0
1363,Ghulja,China,CHN,minor,43.9,81.35,Xinjiang,542507.0
1364,Ixtapaluca,Mexico,MEX,minor,19.3186,-98.8822,México,542211.0
1365,Fuding,China,CHN,minor,27.2,120.2,Fujian,542000.0
1366,Heroica Matamoros,Mexico,MEX,minor,25.8797,-97.5042,Tamaulipas,541979.0
1367,Akron,United States,USA,,41.0798,-81.5219,Ohio,541945.0
1368,Mbeya,Tanzania,TZA,admin,-8.9,33.45,Mbeya,541603.0
1369,An Nāşirīyah,Iraq,IRQ,admin,31.0439,46.2575,Dhī Qār,541600.0
1370,Xiangyang,China,CHN,,34.2995,108.4905,Shaanxi,541554.0
1371,Ibagué,Colombia,COL,admin,4.4333,-75.2333,Tolima,541101.0
1372,Al Ḩillah,Iraq,IRQ,admin,32.4775,44.4314,Bābil,541034.0
1373,Juiz de Fora,Brazil,BRA,,-21.7619,-43.3494,Minas Gerais,540756.0
1374,City of Calamba,Philippines,PHL,,14.22,121.17,Laguna,539671.0
1375,El Geneina,Sudan,SDN,admin,13.45,22.45,West Darfur,538390.0
1376,Santa Cruz,Spain,ESP,admin,28.4667,-16.25,Canary Islands,538000.0
1377,Ryazan,Russia,RUS,admin,54.63,39.7425,Ryazanskaya Oblast’,537622.0
1378,Chang’an,China,CHN,minor,29.4768,113.4504,Hunan,537500.0
1379,Florianópolis,Brazil,BRA,admin,-27.6122,-48.4853,Santa Catarina,537213.0
1380,Nilüfer,Turkey,TUR,minor,40.2833,28.95,Bursa,536365.0
1381,Antwerp,Belgium,BEL,minor,51.2178,4.4003,Flanders,536079.0
1382,Kassala,Sudan,SDN,admin,15.45,36.4,Kassala,536009.0
1383,Aksu,China,CHN,minor,41.185,80.2904,Xinjiang,535657.0
1384,Salta,Argentina,ARG,admin,-24.7833,-65.4167,Salta,535303.0
1385,Dispur,India,IND,admin,26.1397,91.7925,Assam,534872.0
1386,Palm Bay,United States,USA,,27.9631,-80.6593,Florida,534348.0
1387,Naberezhnyye Chelny,Russia,RUS,,55.6833,52.3167,Tatarstan,533839.0
1388,Gulbarga,India,IND,,17.329,76.825,Karnātaka,533587.0
1389,Nansana,Uganda,UGA,,0.3639,32.5286,Wakiso,532800.0
1390,Mingguang,China,CHN,,32.7833,117.9667,Anhui,532732.0
1391,Concord,United States,USA,,37.9722,-122.0016,California,531175.0
1392,Beira,Mozambique,MOZ,admin,-19.8333,34.85,Sofala,530604.0
1393,Yazd,Iran,IRN,admin,31.8822,54.3397,Yazd,529673.0
1394,Ardabīl,Iran,IRN,admin,38.2425,48.29,Ardabīl,529374.0
1395,Touba,Senegal,SEN,,14.8667,-15.8833,Diourbel,529176.0
1396,Bīkaner,India,IND,,28.0181,73.3169,Rājasthān,529007.0
1397,Gaobeidian,China,CHN,minor,39.327,115.874,Hebei,528903.0
1398,Ndola,Zambia,ZMB,admin,-12.9689,28.6325,Copperbelt,528330.0
1399,Himeji,Japan,JPN,,34.8167,134.6833,Hyōgo,527596.0
1400,Ailan Mubage,China,CHN,minor,43.908,81.2777,Xinjiang,526745.0
1401,Bandar ‘Abbās,Iran,IRN,admin,27.1961,56.2878,Hormozgān,526648.0
1402,Skopje,North Macedonia,MKD,primary,41.9961,21.4317,Skopje,526502.0
1403,Santa Teresa del Tuy,Venezuela,VEN,minor,10.2333,-66.6639,Miranda,525321.0
1404,Port Said,Egypt,EGY,admin,31.2625,32.3061,Būr Sa‘īd,524433.0
1405,Astrakhan,Russia,RUS,admin,46.35,48.035,Astrakhanskaya Oblast’,524371.0
1406,Kōtō-ku,Japan,JPN,,35.6667,139.8167,Tōkyō,524310.0
1407,Ciudad Apodaca,Mexico,MEX,minor,25.7817,-100.1886,Nuevo León,523370.0
1408,Montería,Colombia,COL,admin,8.75,-75.8833,Córdoba,523150.0
1409,Nuremberg,Germany,DEU,minor,49.4539,11.0775,Bavaria,523026.0
1410,Kitchener,Canada,CAN,,43.4186,-80.4728,Ontario,522888.0
1411,Yucheng,China,CHN,minor,36.934,116.638,Shandong,522878.0
1412,Nāgercoil,India,IND,,8.175,77.4306,Tamil Nādu,522759.0
1413,Agartala,India,IND,admin,23.8314,91.2869,Tripura,522613.0
1414,Soacha,Colombia,COL,minor,4.5872,-74.2214,Cundinamarca,522442.0
1415,Buca,Turkey,TUR,minor,38.35,27.1667,İzmir,522404.0
1416,Lyon,France,FRA,admin,45.76,4.84,Auvergne-Rhône-Alpes,522250.0
1417,Maipú,Chile,CHL,,-33.5167,-70.7667,Región Metropolitana,521627.0
1418,Arāk,Iran,IRN,admin,34.0914,49.6933,Markazī,520944.0
1419,Serra,Brazil,BRA,,-20.1289,-40.3078,Espírito Santo,520649.0
1420,Tultitlán de Mariano Escobedo,Mexico,MEX,minor,19.645,-99.1694,México,520557.0
1421,Meknès,Morocco,MAR,,33.895,-5.5547,Fès-Meknès,520428.0
1422,Bắc Ninh,Vietnam,VNM,admin,21.1833,106.05,Bắc Ninh,520000.0
1423,Anda,China,CHN,minor,46.424,125.352,Heilongjiang,520000.0
1424,Longzhou,China,CHN,,30.32,112.23,Hubei,520000.0
1425,Al Fayyūm,Egypt,EGY,admin,29.3084,30.8441,Al Fayyūm,519047.0
1426,Utsunomiya,Japan,JPN,admin,36.5551,139.8826,Tochigi,518197.0
1427,Sheffield,United Kingdom,GBR,,53.3808,-1.4703,Sheffield,518090.0
1428,Mixco,Guatemala,GTM,minor,14.6331,-90.6064,Guatemala,517505.0
1429,Suez,Egypt,EGY,admin,29.9667,32.55,As Suways,516959.0
1430,Heshan,China,CHN,,22.7667,112.95,Guangdong,516500.0
1431,Penza,Russia,RUS,admin,53.2,45.0,Penzenskaya Oblast’,516450.0
1432,Loni,India,IND,,28.75,77.28,Uttar Pradesh,516082.0
1433,Jiaji,China,CHN,minor,19.2431,110.4642,Hainan,515700.0
1434,Santa Marta,Colombia,COL,admin,11.2419,-74.2053,Magdalena,515556.0
1435,Ujjain,India,IND,,23.17,75.79,Madhya Pradesh,515215.0
1436,Beining,China,CHN,,41.6,121.8,Liaoning,514898.0
1437,Abū Ţisht,Egypt,EGY,,26.1183,32.0953,Qinā,514535.0
1438,Maturín,Venezuela,VEN,admin,9.75,-63.183,Monagas,514046.0
1439,Liverpool,United Kingdom,GBR,,53.4094,-2.9785,Liverpool,513441.0
1440,Macapá,Brazil,BRA,admin,0.033,-51.05,Amapá,512902.0
1441,Benguela,Angola,AGO,admin,-12.55,13.4167,Benguela,512886.0
1442,Yicheng,China,CHN,minor,31.721,112.257,Hubei,512530.0
1443,Al Fashn,Egypt,EGY,,28.8227,30.8992,Banī Suwayf,512242.0
1444,Al ‘Amārah,Iraq,IRQ,admin,31.8333,47.15,Maysān,511500.0
1445,Carrefour,Haiti,HTI,,18.5344,-72.4094,Ouest,511345.0
1446,Campos,Brazil,BRA,,-21.7539,-41.3239,Rio de Janeiro,511168.0
1447,Cadaado,Somalia,SOM,,6.1403,46.6256,Galguduud,510654.0
1448,Encheng,China,CHN,minor,22.1833,112.3,Guangdong,509700.0
1449,Bhīlwāra,India,IND,,25.35,74.63,Rājasthān,509483.0
1450,Bibā,Egypt,EGY,,28.9218,30.9844,Banī Suwayf,509384.0
1451,Wichita,United States,USA,,37.6895,-97.3443,Kansas,509003.0
1452,Leicester,United Kingdom,GBR,,52.6344,-1.1319,Leicester,508916.0
1453,Newcastle,South Africa,ZAF,,-27.7464,29.9328,KwaZulu-Natal,507710.0
1454,Hải Dương,Vietnam,VNM,admin,20.9397,106.3306,Hải Dương,507469.0
1455,Aden,Yemen,YEM,admin,12.8,45.0333,‘Adan,507355.0
1456,Jhānsi,India,IND,,25.4486,78.5696,Uttar Pradesh,507000.0
1457,Matsuyama,Japan,JPN,admin,33.8333,132.7667,Ehime,506743.0
1458,Ulhāsnagar,India,IND,,19.22,73.15,Mahārāshtra,506098.0
1459,Nagqu,China,CHN,minor,31.476,92.051,Tibet,504838.0
1460,Kitwe,Zambia,ZMB,,-12.8167,28.2,Copperbelt,504194.0
1461,Vellore,India,IND,,12.9165,79.1325,Tamil Nādu,504079.0
1462,Toulouse,France,FRA,admin,43.6045,1.444,Occitanie,504078.0
1463,Pohang,"Korea, South",KOR,minor,36.0322,129.365,Gyeongbuk,503780.0
1464,Mesa,United States,USA,,33.4015,-111.7178,Arizona,503390.0
1465,Lipetsk,Russia,RUS,admin,52.6167,39.6,Lipetskaya Oblast’,503216.0
1466,Duisburg,Germany,DEU,minor,51.4347,6.7625,North Rhine-Westphalia,502211.0
1467,Jammu,India,IND,admin,32.73,74.87,Jammu and Kashmīr,502197.0
1468,Ile-Ife,Nigeria,NGA,minor,7.4667,4.5667,Osun,501952.0
1469,Homyel’,Belarus,BLR,admin,52.4453,30.9842,Homyel’skaya Voblasts’,501802.0
1470,Kirov,Russia,RUS,admin,58.6,49.6833,Kirovskaya Oblast’,501468.0
1471,Mazatlán,Mexico,MEX,minor,23.2167,-106.4167,Sinaloa,501441.0
1472,Meicheng,China,CHN,minor,30.631,116.581,Anhui,500292.0
1473,El Fasher,Sudan,SDN,admin,13.6306,25.35,North Darfur,500000.0
1474,Farāh,Afghanistan,AFG,admin,32.3436,62.1194,Farāh,500000.0
1475,Belas,Angola,AGO,,-8.9983,13.265,Luanda,500000.0
1476,Talatona,Angola,AGO,,-8.9167,13.1833,Luanda,500000.0
1477,Nenjiang,China,CHN,minor,49.11,125.13,Heilongjiang,500000.0
1478,Sukkur,Pakistan,PAK,minor,27.7061,68.8483,Sindh,499900.0
1479,Hsinchu,Taiwan,TWN,admin,24.8167,120.9833,Hsinchu,499348.0
1480,Harrisburg,United States,USA,admin,40.2752,-76.8843,Pennsylvania,498329.0
1481,Kaliningrad,Russia,RUS,admin,54.7003,20.4531,Kaliningradskaya Oblast’,498260.0
1482,Hongjiang,China,CHN,,27.191,109.819,Hunan,498100.0
1483,Qaraghandy,Kazakhstan,KAZ,admin,49.8028,73.1056,Qaraghandy,497777.0
1484,Lapu-Lapu City,Philippines,PHL,admin,10.3127,123.9488,Lapu-Lapu,497604.0
1485,Matsudo,Japan,JPN,,35.7876,139.9032,Chiba,497514.0
1486,Johor Bahru,Malaysia,MYS,admin,1.4556,103.7611,Johor,497097.0
1487,Purnea,India,IND,,25.778,87.476,Bihār,496830.0
1488,Imus,Philippines,PHL,,14.4297,120.9367,Cavite,496794.0
1489,Niterói,Brazil,BRA,,-22.8833,-43.1036,Rio de Janeiro,496696.0
1490,Beipiao,China,CHN,,41.801,120.771,Liaoning,496164.0
1491,Dengtacun,China,CHN,,41.4333,123.3333,Liaoning,496122.0
1492,Zhijiang,China,CHN,,30.426,111.761,Hubei,495995.0
1493,Suoluntun,China,CHN,,45.2279,124.8432,Jilin,495900.0
1494,Staten Island,United States,USA,,40.5834,-74.1496,New York,495747.0
1495,Chengjiao,China,CHN,minor,35.3984,114.0649,Henan,495744.0
1496,Lembok,Indonesia,IDN,,-8.565,116.351,Nusa Tenggara Barat,495651.0
1497,Likasi,Congo (Kinshasa),COD,,-10.9833,26.7333,Haut-Katanga,495000.0
1498,Oujda-Angad,Morocco,MAR,admin,34.6867,-1.9114,Oriental,494252.0
1499,Duyun,China,CHN,,26.2594,107.5186,Guizhou,493574.0
1500,Toledo,United States,USA,,41.6638,-83.5827,Ohio,493302.0
1501,Pindi Bhattian,Pakistan,PAK,,31.8958,73.2761,Punjab,493222.0
1502,Nyala,Sudan,SDN,admin,12.05,24.8833,South Darfur,492984.0
1503,Bissau,Guinea-Bissau,GNB,primary,11.85,-15.5667,Bissau,492004.0
1504,Ichikawa,Japan,JPN,,35.7219,139.9311,Chiba,491716.0
1505,Kota Bharu,Malaysia,MYS,admin,6.1333,102.25,Kelantan,491237.0
1506,Yuanping,China,CHN,,38.731,112.711,Shanxi,491213.0
1507,Higashi-ōsaka,Japan,JPN,,34.6794,135.6008,Ōsaka,490819.0
1508,Larkana,Pakistan,PAK,minor,27.5583,68.2111,Sindh,490508.0
1509,‘Ajmān,United Arab Emirates,ARE,admin,25.4136,55.4456,‘Ajmān,490035.0
1510,Vinh,Vietnam,VNM,admin,18.6667,105.6667,Nghệ An,490000.0
1511,Ciudad López Mateos,Mexico,MEX,minor,19.55,-99.2833,México,489937.0
1512,Cheboksary,Russia,RUS,admin,56.15,47.2333,Chuvashiya,489498.0
1513,Yueqing,China,CHN,,28.12,120.96,Zhejiang,488980.0
1514,Belgaum,India,IND,,15.85,74.5,Karnātaka,488157.0
1515,Caerdydd,United Kingdom,GBR,,51.4833,-3.1833,Cardiff,488153.0
1516,Edinburgh,United Kingdom,GBR,,55.9533,-3.1892,"Edinburgh, City of",488050.0
1517,Brookhaven,United States,USA,,40.832,-72.9517,New York,487162.0
1518,Nishinomiya-hama,Japan,JPN,,34.7376,135.3416,Hyōgo,487010.0
1519,Karamay,China,CHN,minor,45.5799,84.8892,Xinjiang,487000.0
1520,Worcester,United States,USA,,42.2705,-71.8079,Massachusetts,486486.0
1521,Kawachichō,Japan,JPN,,34.6794,135.6008,Ōsaka,486464.0
1522,Shahe,China,CHN,,36.8549,114.5033,Hebei,486329.0
1523,Gdańsk,Poland,POL,admin,54.3475,18.6453,Pomorskie,486022.0
1524,Sevastopol,Ukraine,UKR,admin,44.605,33.5225,"Sevastopol, Misto",485386.0
1525,Garoowe,Somalia,SOM,admin,8.4,48.4667,Nugaal,485000.0
1526,Gaoping,China,CHN,,35.798,112.924,Shanxi,484862.0
1527,Villa Nueva,Guatemala,GTM,minor,14.5269,-90.5875,Guatemala,483897.0
1528,Dunhua,China,CHN,minor,43.3667,128.2333,Jilin,483811.0
1529,Lianran,China,CHN,minor,24.919,102.478,Yunnan,483753.0
1530,Akhmīm,Egypt,EGY,,26.5667,31.75,Sūhāj,482666.0
1531,Şanlıurfa,Turkey,TUR,admin,37.1583,38.7917,Şanlıurfa,482323.0
1532,Az Zarqā’,Jordan,JOR,admin,32.0833,36.1,Az Zarqā’,481300.0
1533,Mālegaon,India,IND,,20.55,74.55,Mahārāshtra,481228.0
1534,São José do Rio Prêto,Brazil,BRA,,-20.8081,-49.3811,São Paulo,480439.0
1535,Valletta,Malta,MLT,primary,35.8983,14.5125,Valletta,480134.0
1536,Kolwezi,Congo (Kinshasa),COD,admin,-10.7167,25.4667,Lualaba,480000.0
1537,Jāmnagar,India,IND,,22.47,70.07,Gujarāt,479920.0
1538,Sylhet,Bangladesh,BGD,admin,24.9,91.8667,Sylhet,479837.0
1539,Ananindeua,Brazil,BRA,,-1.3658,-48.3719,Pará,478778.0
1540,East London,South Africa,ZAF,,-33.0175,27.9047,Eastern Cape,478676.0
1541,Berbera,Somalia,SOM,,10.4356,45.0164,Woqooyi Galbeed,478000.0
1542,Jiannan,China,CHN,minor,31.3333,104.2,Sichuan,477868.0
1543,Chiniot,Pakistan,PAK,minor,31.7194,72.9842,Punjab,477781.0
1544,Asunción,Paraguay,PRY,primary,-25.3,-57.6333,Asunción,477346.0
1545,Ōita,Japan,JPN,admin,33.2333,131.6067,Ōita,477186.0
1546,Nangong,China,CHN,,37.359,115.409,Hebei,476096.0
1547,Bārdoli,India,IND,,21.12,73.12,Gujarāt,475963.0
1548,Eldoret,Kenya,KEN,admin,0.5167,35.2833,Uasin Gishu,475716.0
1549,Bratislava,Slovakia,SVK,primary,48.1439,17.1097,Bratislava,475503.0
1550,Kurashiki,Japan,JPN,,34.585,133.7722,Okayama,474862.0
1551,Al Jubayl,Saudi Arabia,SAU,,27.0,49.6544,Ash Sharqīyah,474679.0
1552,Worthing,United Kingdom,GBR,,50.8147,-0.3714,West Sussex,474485.0
1553,Gaya,India,IND,,24.75,85.01,Bihār,474093.0
1554,Shekhupura,Pakistan,PAK,minor,31.7111,73.9878,Punjab,473129.0
1555,Piura,Peru,PER,admin,-5.2,-80.6333,Piura,473025.0
1556,Vila Velha,Brazil,BRA,,-20.3364,-40.2936,Espírito Santo,472762.0
1557,Ar Ruşayfah,Jordan,JOR,minor,32.0178,36.0464,Az Zarqā’,472604.0
1558,Jiaojiangcun,China,CHN,,28.6804,121.45,Zhejiang,471500.0
1559,Laohekou,China,CHN,,32.359,111.684,Hubei,471482.0
1560,San Juan,Argentina,ARG,admin,-31.5342,-68.5261,San Juan,471389.0
1561,Mykolaiv,Ukraine,UKR,admin,46.975,31.995,Mykolaivska Oblast,470011.0
1562,Beian,China,CHN,minor,48.25,126.5167,Heilongjiang,470000.0
1563,Fujin,China,CHN,minor,47.25,132.0333,Heilongjiang,470000.0
